{
  "generated_at": "2025-01-01T00:00:00Z",
  "total_offices": 177,
  "offices": [
    {
      "id": 1,
      "name": "Alturas",
      "slug": "california-dmv-alturas-office",
      "phone": "(800) 777-0133",
      "hours": "Monday-Friday: 8:00 AM - 5:00 PM",
      "address": "903 W C St, Alturas, CA 96101",
      "services": [
        "Driving Tests",
        "License Plates",
        "Permits",
        "Placards",
        "REAL ID",
        "Records Requests",
        "Replacement Documents",
        "Title Transfers",
        "Vehicle Registration"
      ],
      "hours_detailed": {
        "Sunday": "Closed",
        "Monday": "Closed",
        "Tuesday": "8am-5pm",
        "Wednesday": "Closed",
        "Thursday": "8am-5pm",
        "Friday": "Closed",
        "Saturday": "Closed"
      }
    },
    {
      "id": 2,
      "name": "Arleta",
      "slug": "arleta",
      "phone": "(800) 777-0133",
      "hours": "Monday-Friday: 8:00 AM - 5:00 PM",
      "address": "14400 Van Nuys Blvd, Arleta, CA 91331",
      "services": [
        "Driving Tests",
        "License Plates",
        "Permits",
        "Placards",
        "REAL ID",
        "Records Requests",
        "Replacement Documents",
        "Title Transfers",
        "Vehicle Registration"
      ],
      "hours_detailed": {
        "Sunday": "Closed",
        "Monday": "8am-5pm",
        "Tuesday": "8am-5pm",
        "Wednesday": "9am-5pm",
        "Thursday": "8am-5pm",
        "Friday": "8am-5pm",
        "Saturday": "Closed"
      }
    },
    {
      "id": 3,
      "name": "Arvin",
      "slug": "arvin-dmv",
      "phone": "(800) 777-0133",
      "hours": "Monday-Friday: 8:00 AM - 5:00 PM",
      "address": "317 Campus Dr, Arvin, CA 93203",
      "services": [
        "Driving Tests",
        "License Plates",
        "Permits",
        "Placards",
        "REAL ID",
        "Records Requests",
        "Replacement Documents",
        "Title Transfers",
        "Vehicle Registration"
      ],
      "hours_detailed": {
        "Sunday": "Closed",
        "Monday": "8am-5pm",
        "Tuesday": "8am-5pm",
        "Wednesday": "9am-5pm",
        "Thursday": "8am-5pm",
        "Friday": "8am-5pm",
        "Saturday": "Closed"
      }
    },
    {
      "id": 4,
      "name": "Auburn",
      "slug": "auburn-dmv",
      "phone": "(800) 777-0133",
      "hours": "Monday-Friday: 8:00 AM - 5:00 PM",
      "address": "11722 Enterprise Dr, Auburn, CA 95603",
      "services": [
        "Driving Tests",
        "License Plates",
        "Permits",
        "Placards",
        "REAL ID",
        "Records Requests",
        "Replacement Documents",
        "Title Transfers",
        "Vehicle Registration"
      ],
      "hours_detailed": {
        "Sunday": "Closed",
        "Monday": "8am-5pm",
        "Tuesday": "8am-5pm",
        "Wednesday": "9am-5pm",
        "Thursday": "8am-5pm",
        "Friday": "8am-5pm",
        "Saturday": "Closed"
      }
    },
    {
      "id": 5,
      "name": "Bakersfield",
      "slug": "dmv-bakersfield",
      "phone": "(800) 777-0133",
      "hours": "Monday-Friday: 8:00 AM - 5:00 PM",
      "address": "3120 F Street, Bakersfield, CA 93301",
      "services": [
        "Driving Tests",
        "License Plates",
        "Permits",
        "Placards",
        "REAL ID",
        "Records Requests",
        "Replacement Documents",
        "Title Transfers",
        "Vehicle Registration"
      ],
      "hours_detailed": {
        "Sunday": "Closed",
        "Monday": "8am-5pm",
        "Tuesday": "8am-5pm",
        "Wednesday": "9am-5pm",
        "Thursday": "8am-5pm",
        "Friday": "8am-5pm",
        "Saturday": "Closed"
      }
    },
    {
      "id": 6,
      "name": "Bakersfield Southwest",
      "slug": "dmv-bakersfield-southwest",
      "phone": "(800) 777-0133",
      "hours": "Monday-Friday: 8:00 AM - 5:00 PM",
      "address": "7000 Schirra Ct, Bakersfield, CA 93313",
      "services": [
        "Driving Tests",
        "License Plates",
        "Permits",
        "Placards",
        "REAL ID",
        "Records Requests",
        "Replacement Documents",
        "Title Transfers",
        "Vehicle Registration"
      ],
      "hours_detailed": {
        "Sunday": "Closed",
        "Monday": "8am-5pm",
        "Tuesday": "8am-5pm",
        "Wednesday": "9am-5pm",
        "Thursday": "8am-5pm",
        "Friday": "8am-5pm",
        "Saturday": "Closed"
      }
    },
    {
      "id": 7,
      "name": "Banning",
      "slug": "banning-dmv",
      "phone": "(800) 777-0133",
      "hours": "Monday-Friday: 8:00 AM - 5:00 PM",
      "address": "1034 W. Ramsey St, Banning, CA 92220 (CLOSED)",
      "services": [
        "Driver License",
        "Vehicle Registration",
        "REAL ID"
      ],
      "status": "CLOSED",
      "closed_date": "2023-02-17",
      "closure_reason": "Permanently closed due to structural damage to foundation",
      "nearby_offices": [
        "Hemet",
        "Redlands",
        "Palm Springs"
      ]
    },
    {
      "id": 8,
      "name": "Barstow",
      "slug": "barstow-dmv",
      "phone": "(800) 777-0133",
      "hours": "Monday-Friday: 8:00 AM - 5:00 PM",
      "address": "528 E Virginia Way, Barstow, CA 92311",
      "services": [
        "Commercial Driver License",
        "Driving Tests",
        "License Plates",
        "Permits",
        "Placards",
        "REAL ID",
        "Records Requests",
        "Replacement Documents",
        "Title Transfers",
        "Vehicle Registration"
      ],
      "hours_detailed": {
        "Sunday": "Closed",
        "Monday": "8am-5pm",
        "Tuesday": "8am-5pm",
        "Wednesday": "9am-5pm",
        "Thursday": "8am-5pm",
        "Friday": "8am-5pm",
        "Saturday": "Closed"
      }
    },
    {
      "id": 9,
      "name": "Bell Gardens",
      "slug": "dmv-bell-gardens",
      "phone": "(800) 777-0133",
      "hours": "Monday-Friday: 8:00 AM - 5:00 PM",
      "address": "6801 South Garfield, Bell Gardens, CA 90201",
      "services": [
        "Commercial Driver License",
        "Driving Tests",
        "License Plates",
        "Permits",
        "Placards",
        "REAL ID",
        "Records Requests",
        "Replacement Documents",
        "Title Transfers",
        "Vehicle Registration"
      ],
      "hours_detailed": {
        "Sunday": "Closed",
        "Monday": "8am-5pm",
        "Tuesday": "8am-5pm",
        "Wednesday": "9am-5pm",
        "Thursday": "8am-5pm",
        "Friday": "8am-5pm",
        "Saturday": "Closed"
      }
    },
    {
      "id": 10,
      "name": "Bellflower",
      "slug": "bellflower-dmv",
      "phone": "(800) 777-0133",
      "hours": "Monday-Friday: 8:00 AM - 5:00 PM",
      "address": "9520 Artesia Blvd, Bellflower, CA 90706",
      "services": [
        "Commercial Driver License",
        "Driving Tests",
        "License Plates",
        "Permits",
        "Placards",
        "REAL ID",
        "Records Requests",
        "Replacement Documents",
        "Title Transfers",
        "Vehicle Registration"
      ],
      "hours_detailed": {
        "Sunday": "Closed",
        "Monday": "8am-5pm",
        "Tuesday": "8am-5pm",
        "Wednesday": "9am-5pm",
        "Thursday": "8am-5pm",
        "Friday": "8am-5pm",
        "Saturday": "Closed"
      }
    },
    {
      "id": 11,
      "name": "Bishop",
      "slug": "bishop-dmv",
      "phone": "(800) 777-0133",
      "hours": "Monday-Friday: 8:00 AM - 5:00 PM",
      "address": "1115 West Line Street, Bishop, CA 93514",
      "services": [
        "Driving Tests",
        "License Plates",
        "Permits",
        "Placards",
        "REAL ID",
        "Records Requests",
        "Replacement Documents",
        "Title Transfers",
        "Vehicle Registration"
      ],
      "hours_detailed": {
        "Sunday": "Closed",
        "Monday": "Closed",
        "Tuesday": "8am-5pm",
        "Wednesday": "Closed",
        "Thursday": "8am-5pm",
        "Friday": "Closed",
        "Saturday": "Closed"
      }
    },
    {
      "id": 12,
      "name": "Blythe",
      "slug": "blythe-dmv",
      "phone": "(800) 777-0133",
      "hours": "Monday-Friday: 8:00 AM - 5:00 PM",
      "address": "430 S Broadway, Blythe, CA 92225",
      "services": [
        "Driving Tests",
        "License Plates",
        "Permits",
        "Placards",
        "REAL ID",
        "Records Requests",
        "Replacement Documents",
        "Title Transfers",
        "Vehicle Registration"
      ],
      "hours_detailed": {
        "Sunday": "Closed",
        "Monday": "Closed",
        "Tuesday": "8am-5pm",
        "Wednesday": "Closed",
        "Thursday": "8am-5pm",
        "Friday": "Closed",
        "Saturday": "Closed"
      }
    },
    {
      "id": 13,
      "name": "Brawley",
      "slug": "dmv-brawley",
      "phone": "(800) 777-0133",
      "hours": "Monday-Friday: 8:00 AM - 5:00 PM",
      "address": "173 W Main St., Brawley, CA 92227",
      "services": [
        "Driving Tests",
        "License Plates",
        "Permits",
        "Placards",
        "REAL ID",
        "Records Requests",
        "Replacement Documents",
        "Title Transfers",
        "Vehicle Registration"
      ],
      "hours_detailed": {
        "Sunday": "Closed",
        "Monday": "8am-5pm",
        "Tuesday": "8am-5pm",
        "Wednesday": "9am-5pm",
        "Thursday": "8am-5pm",
        "Friday": "8am-5pm",
        "Saturday": "Closed"
      }
    },
    {
      "id": 14,
      "name": "Capitola",
      "slug": "dmv-capitola",
      "phone": "(800) 777-0133",
      "hours": "Monday-Friday: 8:00 AM - 5:00 PM",
      "address": "4200 Capitola Road, Capitola, CA 95010",
      "services": [
        "Driving Tests",
        "License Plates",
        "Permits",
        "Placards",
        "REAL ID",
        "Records Requests",
        "Replacement Documents",
        "Title Transfers",
        "Vehicle Registration"
      ],
      "hours_detailed": {
        "Sunday": "Closed",
        "Monday": "8am-5pm",
        "Tuesday": "8am-5pm",
        "Wednesday": "9am-5pm",
        "Thursday": "8am-5pm",
        "Friday": "8am-5pm",
        "Saturday": "Closed"
      }
    },
    {
      "id": 15,
      "name": "Carmichael",
      "slug": "carmichael-dmv",
      "phone": "(800) 777-0133",
      "hours": "Monday-Friday: 8:00 AM - 5:00 PM",
      "address": "5209 North Ave, Carmichael, CA 95608",
      "services": [
        "Commercial Driver License",
        "Driving Tests",
        "License Plates",
        "Permits",
        "Placards",
        "REAL ID",
        "Records Requests",
        "Replacement Documents",
        "Title Transfers",
        "Vehicle Registration"
      ],
      "hours_detailed": {
        "Sunday": "Closed",
        "Monday": "8am-5pm",
        "Tuesday": "8am-5pm",
        "Wednesday": "9am-5pm",
        "Thursday": "8am-5pm",
        "Friday": "8am-5pm",
        "Saturday": "Closed"
      }
    },
    {
      "id": 16,
      "name": "Chico",
      "slug": "dmv-chico",
      "phone": "(800) 777-0133",
      "hours": "Monday-Friday: 8:00 AM - 5:00 PM",
      "address": "107 Parmac Rd #1, Chico, CA 95926",
      "services": [
        "Driving Tests",
        "License Plates",
        "Permits",
        "Placards",
        "REAL ID",
        "Records Requests",
        "Replacement Documents",
        "Title Transfers",
        "Vehicle Registration"
      ],
      "hours_detailed": {
        "Sunday": "Closed",
        "Monday": "8am-5pm",
        "Tuesday": "8am-5pm",
        "Wednesday": "9am-5pm",
        "Thursday": "8am-5pm",
        "Friday": "8am-5pm",
        "Saturday": "Closed"
      }
    },
    {
      "id": 17,
      "name": "Chula Vista",
      "slug": "dmv-chula-vista",
      "phone": "(800) 777-0133",
      "hours": "Monday-Friday: 8:00 AM - 5:00 PM",
      "address": "30 N Glover Avenue, Chula Vista, CA 91910",
      "services": [
        "Driving Tests",
        "License Plates",
        "Permits",
        "Placards",
        "REAL ID",
        "Records Requests",
        "Replacement Documents",
        "Title Transfers",
        "Vehicle Registration"
      ],
      "hours_detailed": {
        "Sunday": "Closed",
        "Monday": "8am-5pm",
        "Tuesday": "8am-5pm",
        "Wednesday": "9am-5pm",
        "Thursday": "8am-5pm",
        "Friday": "8am-5pm",
        "Saturday": "Closed"
      }
    },
    {
      "id": 18,
      "name": "Clovis",
      "slug": "dmv-clovis",
      "phone": "(800) 777-0133",
      "hours": "Monday-Friday: 8:00 AM - 5:00 PM",
      "address": "2103 Shaw Avenue, Clovis, CA 93611",
      "services": [
        "Commercial Driver License",
        "Driving Tests",
        "License Plates",
        "Permits",
        "Placards",
        "REAL ID",
        "Records Requests",
        "Replacement Documents",
        "Title Transfers",
        "Vehicle Registration"
      ],
      "hours_detailed": {
        "Sunday": "Closed",
        "Monday": "8am-5pm",
        "Tuesday": "8am-5pm",
        "Wednesday": "9am-5pm",
        "Thursday": "8am-5pm",
        "Friday": "8am-5pm",
        "Saturday": "Closed"
      }
    },
    {
      "id": 19,
      "name": "Coalinga",
      "slug": "coalinga-dmv",
      "phone": "(800) 777-0133",
      "hours": "Monday-Friday: 8:00 AM - 5:00 PM",
      "address": "406 East Elm Avenue, Coalinga, CA 93210",
      "services": [
        "Commercial Driver License",
        "Driving Tests",
        "License Plates",
        "Permits",
        "Placards",
        "REAL ID",
        "Records Requests",
        "Replacement Documents",
        "Title Transfers",
        "Vehicle Registration"
      ],
      "hours_detailed": {
        "Sunday": "Closed",
        "Monday": "Closed",
        "Tuesday": "8am-5pm",
        "Wednesday": "Closed",
        "Thursday": "8am-5pm",
        "Friday": "Closed",
        "Saturday": "Closed"
      }
    },
    {
      "id": 20,
      "name": "Colusa",
      "slug": "colusa-dmv",
      "phone": "(800) 777-0133",
      "hours": "Monday-Friday: 8:00 AM - 5:00 PM",
      "address": "1025 Bridge St STE B, Colusa, CA 95932",
      "services": [
        "Driving Tests",
        "License Plates",
        "Permits",
        "Placards",
        "REAL ID",
        "Records Requests",
        "Replacement Documents",
        "Title Transfers",
        "Vehicle Registration"
      ],
      "hours_detailed": {
        "Sunday": "Closed",
        "Monday": "Closed",
        "Tuesday": "8am-5pm",
        "Wednesday": "Closed",
        "Thursday": "8am-5pm",
        "Friday": "Closed",
        "Saturday": "Closed"
      }
    },
    {
      "id": 21,
      "name": "Compton",
      "slug": "compton-dmv",
      "phone": "(800) 777-0133",
      "hours": "Monday-Friday: 8:00 AM - 5:00 PM",
      "address": "2111 South Santa Fe Avenue, Compton, CA 90221",
      "services": [
        "Commercial Driver License",
        "Driving Tests",
        "License Plates",
        "Permits",
        "Placards",
        "REAL ID",
        "Records Requests",
        "Replacement Documents",
        "Title Transfers",
        "Vehicle Registration"
      ],
      "hours_detailed": {
        "Sunday": "Closed",
        "Monday": "8am-5pm",
        "Tuesday": "8am-5pm",
        "Wednesday": "9am-5pm",
        "Thursday": "8am-5pm",
        "Friday": "8am-5pm",
        "Saturday": "Closed"
      }
    },
    {
      "id": 22,
      "name": "Concord",
      "slug": "dmv-concord",
      "phone": "(800) 777-0133",
      "hours": "Monday-Friday: 8:00 AM - 5:00 PM",
      "address": "2070 Diamond Boulevard, Concord, CA 94520",
      "services": [
        "Driving Tests",
        "License Plates",
        "Permits",
        "Placards",
        "REAL ID",
        "Records Requests",
        "Replacement Documents",
        "Title Transfers",
        "Vehicle Registration"
      ],
      "hours_detailed": {
        "Sunday": "Closed",
        "Monday": "8am-5pm",
        "Tuesday": "8am-5pm",
        "Wednesday": "9am-5pm",
        "Thursday": "8am-5pm",
        "Friday": "8am-5pm",
        "Saturday": "Closed"
      }
    },
    {
      "id": 23,
      "name": "Corte Madera",
      "slug": "dmv-corte-madera",
      "phone": "(800) 777-0133",
      "hours": "Monday-Friday: 8:00 AM - 5:00 PM",
      "address": "75 Tamal Vista Boulevard, Corte Madera, CA 94925",
      "services": [
        "Driving Tests",
        "License Plates",
        "Permits",
        "Placards",
        "REAL ID",
        "Records Requests",
        "Replacement Documents",
        "Title Transfers",
        "Vehicle Registration"
      ],
      "hours_detailed": {
        "Sunday": "Closed",
        "Monday": "8am-5pm",
        "Tuesday": "8am-5pm",
        "Wednesday": "9am-5pm",
        "Thursday": "8am-5pm",
        "Friday": "8am-5pm",
        "Saturday": "Closed"
      }
    },
    {
      "id": 24,
      "name": "Costa Mesa",
      "slug": "costa-mesa-dmv",
      "phone": "(800) 777-0133",
      "hours": "Monday-Friday: 8:00 AM - 5:00 PM",
      "address": "650 W 19th Street, Costa Mesa, CA 92627",
      "services": [
        "Driving Tests",
        "License Plates",
        "Permits",
        "Placards",
        "REAL ID",
        "Records Requests",
        "Replacement Documents",
        "Title Transfers",
        "Vehicle Registration"
      ],
      "hours_detailed": {
        "Sunday": "Closed",
        "Monday": "8am-5pm",
        "Tuesday": "8am-5pm",
        "Wednesday": "9am-5pm",
        "Thursday": "8am-5pm",
        "Friday": "8am-5pm",
        "Saturday": "Closed"
      }
    },
    {
      "id": 25,
      "name": "Crescent City",
      "slug": "dmv-crescent-city-ca",
      "phone": "(800) 777-0133",
      "hours": "Monday-Friday: 8:00 AM - 5:00 PM",
      "address": "1475 Parkway Drive, Crescent City, CA 95531",
      "services": [
        "Driving Tests",
        "License Plates",
        "Permits",
        "Placards",
        "REAL ID",
        "Records Requests",
        "Replacement Documents",
        "Title Transfers",
        "Vehicle Registration"
      ],
      "hours_detailed": {
        "Sunday": "Closed",
        "Monday": "Closed",
        "Tuesday": "8am-5pm",
        "Wednesday": "Closed",
        "Thursday": "8am-5pm",
        "Friday": "Closed",
        "Saturday": "Closed"
      }
    },
    {
      "id": 26,
      "name": "Culver City",
      "slug": "culver-city-dmv",
      "phone": "(800) 777-0133",
      "hours": "Monday-Friday: 8:00 AM - 5:00 PM",
      "address": "11400 W Washington Blvd, Culver City, CA 90066",
      "services": [
        "Driving Tests",
        "License Plates",
        "Permits",
        "Placards",
        "REAL ID",
        "Records Requests",
        "Replacement Documents",
        "Title Transfers",
        "Vehicle Registration"
      ],
      "hours_detailed": {
        "Sunday": "Closed",
        "Monday": "8am-5pm",
        "Tuesday": "8am-5pm",
        "Wednesday": "9am-5pm",
        "Thursday": "8am-5pm",
        "Friday": "8am-5pm",
        "Saturday": "Closed"
      }
    },
    {
      "id": 27,
      "name": "Daly City",
      "slug": "dmv-daly-city",
      "phone": "(800) 777-0133",
      "hours": "Monday-Friday: 8:00 AM - 5:00 PM",
      "address": "1500 Sullivan Avenue, Daly City, CA 94015",
      "services": [
        "Driving Tests",
        "License Plates",
        "Permits",
        "Placards",
        "REAL ID",
        "Records Requests",
        "Replacement Documents",
        "Title Transfers",
        "Vehicle Registration"
      ],
      "hours_detailed": {
        "Sunday": "Closed",
        "Monday": "8am-5pm",
        "Tuesday": "8am-5pm",
        "Wednesday": "9am-5pm",
        "Thursday": "8am-5pm",
        "Friday": "8am-5pm",
        "Saturday": "Closed"
      }
    },
    {
      "id": 28,
      "name": "Davis",
      "slug": "davis-dmv",
      "phone": "(800) 777-0133",
      "hours": "Monday-Friday: 8:00 AM - 5:00 PM",
      "address": "505 Pole Line Road, Davis, CA 95616",
      "services": [
        "Commercial Driver License",
        "Driving Tests",
        "License Plates",
        "Permits",
        "Placards",
        "REAL ID",
        "Records Requests",
        "Replacement Documents",
        "Title Transfers",
        "Vehicle Registration"
      ],
      "hours_detailed": {
        "Sunday": "Closed",
        "Monday": "8am-5pm",
        "Tuesday": "8am-5pm",
        "Wednesday": "9am-5pm",
        "Thursday": "8am-5pm",
        "Friday": "8am-5pm",
        "Saturday": "Closed"
      }
    },
    {
      "id": 29,
      "name": "Delano",
      "slug": "delano-dmv",
      "phone": "(800) 777-0133",
      "hours": "Monday-Friday: 8:00 AM - 5:00 PM",
      "address": "631 Jefferson Street, Delano, CA 93215",
      "services": [
        "Driving Tests",
        "License Plates",
        "Permits",
        "Placards",
        "REAL ID",
        "Records Requests",
        "Replacement Documents",
        "Title Transfers",
        "Vehicle Registration"
      ],
      "hours_detailed": {
        "Sunday": "Closed",
        "Monday": "8am-5pm",
        "Tuesday": "8am-5pm",
        "Wednesday": "9am-5pm",
        "Thursday": "8am-5pm",
        "Friday": "8am-5pm",
        "Saturday": "Closed"
      }
    },
    {
      "id": 30,
      "name": "El Cajon",
      "slug": "dmv-el-cajon",
      "phone": "(800) 777-0133",
      "hours": "Monday-Friday: 8:00 AM - 5:00 PM",
      "address": "1450 Graves Avenue, El Cajon, CA 92021",
      "services": [
        "Driving Tests",
        "License Plates",
        "Permits",
        "Placards",
        "REAL ID",
        "Records Requests",
        "Replacement Documents",
        "Title Transfers",
        "Vehicle Registration"
      ],
      "hours_detailed": {
        "Sunday": "Closed",
        "Monday": "8am-5pm",
        "Tuesday": "8am-5pm",
        "Wednesday": "9am-5pm",
        "Thursday": "8am-5pm",
        "Friday": "8am-5pm",
        "Saturday": "Closed"
      }
    },
    {
      "id": 31,
      "name": "El Centro",
      "slug": "dmv-el-centro",
      "phone": "(800) 777-0133",
      "hours": "Monday-Friday: 8:00 AM - 5:00 PM",
      "address": "233 N Imperial Avenue, El Centro, CA 92243",
      "services": [
        "Driving Tests",
        "License Plates",
        "Permits",
        "Placards",
        "REAL ID",
        "Records Requests",
        "Replacement Documents",
        "Title Transfers",
        "Vehicle Registration"
      ],
      "hours_detailed": {
        "Sunday": "Closed",
        "Monday": "8am-5pm",
        "Tuesday": "8am-5pm",
        "Wednesday": "9am-5pm",
        "Thursday": "8am-5pm",
        "Friday": "8am-5pm",
        "Saturday": "Closed"
      }
    },
    {
      "id": 32,
      "name": "El Cerrito",
      "slug": "el-cerrito-dmv",
      "phone": "(800) 777-0133",
      "hours": "Monday-Friday: 8:00 AM - 5:00 PM",
      "address": "6400 Manila Avenue, El Cerrito, CA 94530",
      "services": [
        "Driving Tests",
        "License Plates",
        "Permits",
        "Placards",
        "REAL ID",
        "Records Requests",
        "Replacement Documents",
        "Title Transfers",
        "Vehicle Registration"
      ],
      "hours_detailed": {
        "Sunday": "Closed",
        "Monday": "8am-5pm",
        "Tuesday": "8am-5pm",
        "Wednesday": "9am-5pm",
        "Thursday": "8am-5pm",
        "Friday": "8am-5pm",
        "Saturday": "Closed"
      }
    },
    {
      "id": 33,
      "name": "El Monte",
      "slug": "el-monte-dmv",
      "phone": "(800) 777-0133",
      "hours": "Monday-Friday: 8:00 AM - 5:00 PM",
      "address": "4000 Arden Drive, El Monte, CA 91731",
      "services": [
        "Driving Tests",
        "License Plates",
        "Permits",
        "Placards",
        "REAL ID",
        "Records Requests",
        "Replacement Documents",
        "Title Transfers",
        "Vehicle Registration"
      ],
      "hours_detailed": {
        "Sunday": "Closed",
        "Monday": "8am-5pm",
        "Tuesday": "8am-5pm",
        "Wednesday": "9am-5pm",
        "Thursday": "8am-5pm",
        "Friday": "8am-5pm",
        "Saturday": "Closed"
      }
    },
    {
      "id": 34,
      "name": "Eureka",
      "slug": "dmv-euraka",
      "phone": "(800) 777-0133",
      "hours": "Monday-Friday: 8:00 AM - 5:00 PM",
      "address": "2500 6th&nbsp;St, Eureka, CA 95501",
      "services": [
        "Driving Tests",
        "License Plates",
        "Permits",
        "Placards",
        "REAL ID",
        "Records Requests",
        "Replacement Documents",
        "Title Transfers",
        "Vehicle Registration"
      ],
      "hours_detailed": {
        "Sunday": "Closed",
        "Monday": "8am-5pm",
        "Tuesday": "8am-5pm",
        "Wednesday": "9am-5pm",
        "Thursday": "8am-5pm",
        "Friday": "8am-5pm",
        "Saturday": "Closed"
      }
    },
    {
      "id": 35,
      "name": "Fairfield",
      "slug": "fairfield-dmv",
      "phone": "(800) 777-0133",
      "hours": "Monday-Friday: 8:00 AM - 5:00 PM",
      "address": "160 Serrano Drive, Fairfield, CA 94533",
      "services": [
        "Driving Tests",
        "License Plates",
        "Permits",
        "Placards",
        "REAL ID",
        "Records Requests",
        "Replacement Documents",
        "Title Transfers",
        "Vehicle Registration"
      ],
      "hours_detailed": {
        "Sunday": "Closed",
        "Monday": "8am-5pm",
        "Tuesday": "8am-5pm",
        "Wednesday": "9am-5pm",
        "Thursday": "8am-5pm",
        "Friday": "8am-5pm",
        "Saturday": "Closed"
      }
    },
    {
      "id": 36,
      "name": "Fall River Mills",
      "slug": "dmv-fall-river-mills-ca",
      "phone": "(800) 777-0133",
      "hours": "Monday-Friday: 8:00 AM - 5:00 PM",
      "address": "43467 Hwy 299E, Fall River Mills, CA 96028",
      "services": [
        "Driving Tests",
        "License Plates",
        "Permits",
        "Placards",
        "REAL ID",
        "Records Requests",
        "Replacement Documents",
        "Title Transfers",
        "Vehicle Registration"
      ],
      "hours_detailed": {
        "Sunday": "Closed",
        "Monday": "Closed",
        "Tuesday": "8am-5pm",
        "Wednesday": "Closed",
        "Thursday": "8am-5pm",
        "Friday": "Closed",
        "Saturday": "Closed"
      }
    },
    {
      "id": 37,
      "name": "Folsom",
      "slug": "folsom-dmv",
      "phone": "(800) 777-0133",
      "hours": "Monday-Friday: 8:00 AM - 5:00 PM",
      "address": "323 E Bidwell A, Folsom, CA 95630",
      "services": [
        "Driving Tests",
        "License Plates",
        "Permits",
        "Placards",
        "REAL ID",
        "Records Requests",
        "Replacement Documents",
        "Title Transfers",
        "Vehicle Registration"
      ],
      "hours_detailed": {
        "Sunday": "Closed",
        "Monday": "8am-5pm",
        "Tuesday": "8am-5pm",
        "Wednesday": "9am-5pm",
        "Thursday": "8am-5pm",
        "Friday": "8am-5pm",
        "Saturday": "Closed"
      }
    },
    {
      "id": 38,
      "name": "Fontana",
      "slug": "fontana-dmv",
      "phone": "(800) 777-0133",
      "hours": "Monday-Friday: 8:00 AM - 5:00 PM",
      "address": "8026 Hemlock Ave, Fontana, CA 92336",
      "services": [
        "Commercial Driver License",
        "Driving Tests",
        "License Plates",
        "Permits",
        "Placards",
        "REAL ID",
        "Records Requests",
        "Replacement Documents",
        "Title Transfers",
        "Vehicle Registration"
      ],
      "hours_detailed": {
        "Sunday": "Closed",
        "Monday": "8am-5pm",
        "Tuesday": "8am-5pm",
        "Wednesday": "9am-5pm",
        "Thursday": "8am-5pm",
        "Friday": "8am-5pm",
        "Saturday": "Closed"
      }
    },
    {
      "id": 39,
      "name": "Fontana Commercial Drive Test Center",
      "slug": "fontana-commercial-drive-test-center",
      "phone": "(800) 777-0133",
      "hours": "Monday-Friday: 8:00 AM - 5:00 PM",
      "address": "10207 Poplar Ave, Fontana, CA 92335",
      "services": [
        "Commercial Driver License",
        "Driving Tests",
        "License Plates",
        "Placards",
        "REAL ID",
        "Records Requests",
        "Replacement Documents",
        "Vehicle Registration"
      ],
      "hours_detailed": {
        "Sunday": "Closed",
        "Monday": "7am-4pm",
        "Tuesday": "7am-4pm",
        "Wednesday": "8am-4pm",
        "Thursday": "7am-4pm",
        "Friday": "7am-4pm",
        "Saturday": "Closed"
      }
    },
    {
      "id": 40,
      "name": "Fort Bragg",
      "slug": "fort-bragg-dmv",
      "phone": "(800) 777-0133",
      "hours": "Monday-Friday: 8:00 AM - 5:00 PM",
      "address": "410 S Franklin Street, Fort Bragg, CA 95437",
      "services": [
        "Driving Tests",
        "License Plates",
        "Permits",
        "Placards",
        "REAL ID",
        "Records Requests",
        "Replacement Documents",
        "Title Transfers",
        "Vehicle Registration"
      ],
      "hours_detailed": {
        "Sunday": "Closed",
        "Monday": "Closed",
        "Tuesday": "8am-5pm",
        "Wednesday": "Closed",
        "Thursday": "8am-5pm",
        "Friday": "Closed",
        "Saturday": "Closed"
      }
    },
    {
      "id": 41,
      "name": "Fremont",
      "slug": "fremont-dmv",
      "phone": "(800) 777-0133",
      "hours": "Monday-Friday: 8:00 AM - 5:00 PM",
      "address": "4287 Central Avenue, Fremont, CA 94536",
      "services": [
        "Driving Tests",
        "License Plates",
        "Permits",
        "Placards",
        "REAL ID",
        "Records Requests",
        "Replacement Documents",
        "Title Transfers",
        "Vehicle Registration"
      ],
      "hours_detailed": {
        "Sunday": "Closed",
        "Monday": "8am-5pm",
        "Tuesday": "8am-5pm",
        "Wednesday": "9am-5pm",
        "Thursday": "8am-5pm",
        "Friday": "8am-5pm",
        "Saturday": "Closed"
      }
    },
    {
      "id": 42,
      "name": "Fresno",
      "slug": "dmv-fresno",
      "phone": "(800) 777-0133",
      "hours": "Monday-Friday: 8:00 AM - 5:00 PM",
      "address": "655 W Olive Avenue, Fresno, CA 93728",
      "services": [
        "Commercial Driver License",
        "Driving Tests",
        "License Plates",
        "Permits",
        "Placards",
        "REAL ID",
        "Records Requests",
        "Replacement Documents",
        "Title Transfers",
        "Vehicle Registration"
      ],
      "hours_detailed": {
        "Sunday": "Closed",
        "Monday": "8am-5pm",
        "Tuesday": "8am-5pm",
        "Wednesday": "9am-5pm",
        "Thursday": "8am-5pm",
        "Friday": "8am-5pm",
        "Saturday": "Closed"
      }
    },
    {
      "id": 43,
      "name": "Fresno Commercial Drive Test Center",
      "slug": "fresno-commercial-drive-test-center",
      "phone": "(800) 777-0133",
      "hours": "Monday-Friday: 8:00 AM - 5:00 PM",
      "address": "735 E North Ave, Fresno, CA 93725",
      "services": [
        "Commercial Driver License",
        "Driving Tests",
        "License Plates",
        "Placards",
        "REAL ID",
        "Records Requests",
        "Replacement Documents",
        "Vehicle Registration"
      ],
      "hours_detailed": {
        "Sunday": "Closed",
        "Monday": "7am-4pm",
        "Tuesday": "7am-4pm",
        "Wednesday": "8am-4pm",
        "Thursday": "7am-4pm",
        "Friday": "7am-4pm",
        "Saturday": "Closed"
      }
    },
    {
      "id": 44,
      "name": "Fresno North",
      "slug": "fresno-north-dmv",
      "phone": "(800) 777-0133",
      "hours": "Monday-Friday: 8:00 AM - 5:00 PM",
      "address": "6420 N Blackstone Avenue, Fresno, CA 93710",
      "services": [
        "Commercial Driver License",
        "Driving Tests",
        "License Plates",
        "Permits",
        "Placards",
        "REAL ID",
        "Records Requests",
        "Replacement Documents",
        "Title Transfers",
        "Vehicle Registration"
      ],
      "hours_detailed": {
        "Sunday": "Closed",
        "Monday": "8am-5pm",
        "Tuesday": "8am-5pm",
        "Wednesday": "9am-5pm",
        "Thursday": "8am-5pm",
        "Friday": "8am-5pm",
        "Saturday": "Closed"
      }
    },
    {
      "id": 45,
      "name": "Fullerton",
      "slug": "fullerton-dmv",
      "phone": "(800) 777-0133",
      "hours": "See hours below",
      "address": "909 W Valencia Drive, Fullerton, CA 92832",
      "services": [
        "Driving Tests",
        "License Plates",
        "Permits",
        "Placards",
        "REAL ID",
        "Records Requests",
        "Replacement Documents",
        "Title Transfers",
        "Vehicle Registration"
      ],
      "hours_detailed": {
        "Sunday": "Closed",
        "Monday": "8am-5pm",
        "Tuesday": "8am-5pm",
        "Wednesday": "9am-5pm",
        "Thursday": "8am-5pm",
        "Friday": "8am-5pm",
        "Saturday": "Closed"
      }
    },
    {
      "id": 46,
      "name": "Garberville",
      "slug": "garberville-dmv",
      "phone": "(800) 777-0133",
      "hours": "Monday-Friday: 8:00 AM - 5:00 PM",
      "address": "1180 Evergreen Rd, Redway, CA 95560",
      "services": [
        "Driving Tests",
        "License Plates",
        "Permits",
        "Placards",
        "REAL ID",
        "Records Requests",
        "Replacement Documents",
        "Title Transfers",
        "Vehicle Registration"
      ],
      "hours_detailed": {
        "Sunday": "Closed",
        "Monday": "Closed",
        "Tuesday": "8am-5pm",
        "Wednesday": "Closed",
        "Thursday": "8am-5pm",
        "Friday": "Closed",
        "Saturday": "Closed"
      }
    },
    {
      "id": 47,
      "name": "Gardena Commercial Drive Test Center",
      "slug": "gardena-commercial-drive-test-center",
      "phone": "(800) 777-0133",
      "hours": "Monday-Friday: 8:00 AM - 5:00 PM",
      "address": "14825 S Avalon Blvd, Gardena, CA 90248",
      "services": [
        "Commercial Driver License",
        "Driving Tests",
        "License Plates",
        "Placards",
        "REAL ID",
        "Records Requests",
        "Replacement Documents",
        "Vehicle Registration"
      ],
      "hours_detailed": {
        "Sunday": "Closed",
        "Monday": "7am-4pm",
        "Tuesday": "7am-4pm",
        "Wednesday": "8am-4pm",
        "Thursday": "7am-4pm",
        "Friday": "7am-4pm",
        "Saturday": "Closed"
      }
    },
    {
      "id": 48,
      "name": "Gilroy",
      "slug": "gilroy-dmv",
      "phone": "(800) 777-0133",
      "hours": "Monday-Friday: 8:00 AM - 5:00 PM",
      "address": "6984 Automall Parkway Suite A, Gilroy, CA 95020",
      "services": [
        "Driving Tests",
        "License Plates",
        "Permits",
        "Placards",
        "REAL ID",
        "Records Requests",
        "Replacement Documents",
        "Title Transfers",
        "Vehicle Registration"
      ],
      "hours_detailed": {
        "Sunday": "Closed",
        "Monday": "8am-5pm",
        "Tuesday": "8am-5pm",
        "Wednesday": "9am-5pm",
        "Thursday": "8am-5pm",
        "Friday": "8am-5pm",
        "Saturday": "Closed"
      }
    },
    {
      "id": 49,
      "name": "Glendale",
      "slug": "glendale-dmv",
      "phone": "(800) 777-0133",
      "hours": "Monday-Friday: 8:00 AM - 5:00 PM",
      "address": "1335 W Glenoaks Boulevard, Glendale, CA 91201",
      "services": [
        "Driving Tests",
        "License Plates",
        "Permits",
        "Placards",
        "REAL ID",
        "Records Requests",
        "Replacement Documents",
        "Title Transfers",
        "Vehicle Registration"
      ],
      "hours_detailed": {
        "Sunday": "Closed",
        "Monday": "8am-5pm",
        "Tuesday": "8am-5pm",
        "Wednesday": "9am-5pm",
        "Thursday": "8am-5pm",
        "Friday": "8am-5pm",
        "Saturday": "Closed"
      }
    },
    {
      "id": 50,
      "name": "Goleta",
      "slug": "dmv-goleta",
      "phone": "(800) 777-0133",
      "hours": "Monday-Friday: 8:00 AM - 5:00 PM",
      "address": "7127 Hollister Avenue Suite 24/26, Goleta, CA 93117",
      "services": [
        "Driving Tests",
        "License Plates",
        "Permits",
        "Placards",
        "REAL ID",
        "Records Requests",
        "Replacement Documents",
        "Title Transfers",
        "Vehicle Registration"
      ],
      "hours_detailed": {
        "Sunday": "Closed",
        "Monday": "8am-5pm",
        "Tuesday": "8am-5pm",
        "Wednesday": "9am-5pm",
        "Thursday": "8am-5pm",
        "Friday": "8am-5pm",
        "Saturday": "Closed"
      }
    },
    {
      "id": 51,
      "name": "Granada Hills Driver License Processing Center",
      "slug": "granada-hills-driver-license-processing-center",
      "phone": "(800) 777-0133",
      "hours": "Monday-Friday: 8:00 AM - 5:00 PM",
      "address": "",
      "services": [
        "Driver License",
        "Vehicle Registration",
        "REAL ID"
      ],
      "status": "CLOSED",
      "closed_date": "2023-09-01",
      "closure_reason": "Driver License Processing Center closed"
    },
    {
      "id": 52,
      "name": "Grass Valley",
      "slug": "dmv-grass-valley",
      "phone": "(800) 777-0133",
      "hours": "Monday-Friday: 8:00 AM - 5:00 PM",
      "address": "890 Sutton Way, Grass Valley, CA 95945",
      "services": [
        "Driving Tests",
        "License Plates",
        "Permits",
        "Placards",
        "REAL ID",
        "Records Requests",
        "Replacement Documents",
        "Title Transfers",
        "Vehicle Registration"
      ],
      "hours_detailed": {
        "Sunday": "Closed",
        "Monday": "8am-5pm",
        "Tuesday": "Closed",
        "Wednesday": "9am-5pm",
        "Thursday": "Closed",
        "Friday": "8am-5pm",
        "Saturday": "Closed"
      }
    },
    {
      "id": 53,
      "name": "Hanford",
      "slug": "hanford-dmv",
      "phone": "(800) 777-0133",
      "hours": "Monday-Friday: 8:00 AM - 5:00 PM",
      "address": "701 W Hanford Armona Road (corner of W Armona), Hanford, CA 93230",
      "services": [
        "Driving Tests",
        "License Plates",
        "Permits",
        "Placards",
        "REAL ID",
        "Records Requests",
        "Replacement Documents",
        "Title Transfers",
        "Vehicle Registration"
      ],
      "hours_detailed": {
        "Sunday": "Closed",
        "Monday": "8am-5pm",
        "Tuesday": "8am-5pm",
        "Wednesday": "9am-5pm",
        "Thursday": "8am-5pm",
        "Friday": "8am-5pm",
        "Saturday": "Closed"
      }
    },
    {
      "id": 54,
      "name": "Hawthorne",
      "slug": "hawthorne-dmv",
      "phone": "(800) 777-0133",
      "hours": "Monday-Friday: 8:00 AM - 5:00 PM",
      "address": "3700 W El Segundo Boulevard, Hawthorne, CA 90250",
      "services": [
        "Commercial Driver License",
        "Driving Tests",
        "License Plates",
        "Permits",
        "Placards",
        "REAL ID",
        "Records Requests",
        "Replacement Documents",
        "Title Transfers",
        "Vehicle Registration"
      ],
      "hours_detailed": {
        "Sunday": "Closed",
        "Monday": "8am-5pm",
        "Tuesday": "8am-5pm",
        "Wednesday": "9am-5pm",
        "Thursday": "8am-5pm",
        "Friday": "8am-5pm",
        "Saturday": "Closed"
      }
    },
    {
      "id": 55,
      "name": "Hayward",
      "slug": "hayward-dmv",
      "phone": "(800) 777-0133",
      "hours": "Monday-Friday: 8:00 AM - 5:00 PM",
      "address": "150 Jackson Street, Hayward, CA 94544",
      "services": [
        "Driving Tests",
        "License Plates",
        "Permits",
        "Placards",
        "REAL ID",
        "Records Requests",
        "Replacement Documents",
        "Title Transfers",
        "Vehicle Registration"
      ],
      "hours_detailed": {
        "Sunday": "Closed",
        "Monday": "8am-5pm",
        "Tuesday": "8am-5pm",
        "Wednesday": "9am-5pm",
        "Thursday": "8am-5pm",
        "Friday": "8am-5pm",
        "Saturday": "Closed"
      }
    },
    {
      "id": 56,
      "name": "Hemet",
      "slug": "hemet-dmv",
      "phone": "(800) 777-0133",
      "hours": "Monday-Friday: 8:00 AM - 5:00 PM",
      "address": "1200 S State St, Hemet, CA 92543",
      "services": [
        "Driving Tests",
        "License Plates",
        "Permits",
        "Placards",
        "REAL ID",
        "Records Requests",
        "Replacement Documents",
        "Title Transfers",
        "Vehicle Registration"
      ],
      "hours_detailed": {
        "Sunday": "Closed",
        "Monday": "8am-5pm",
        "Tuesday": "8am-5pm",
        "Wednesday": "9am-5pm",
        "Thursday": "8am-5pm",
        "Friday": "8am-5pm",
        "Saturday": "Closed"
      }
    },
    {
      "id": 57,
      "name": "Hollister",
      "slug": "hollister-dmv",
      "phone": "(800) 777-0133",
      "hours": "Monday-Friday: 8:00 AM - 5:00 PM",
      "address": "80 N Sally Street, Hollister, CA 95023",
      "services": [
        "Driving Tests",
        "License Plates",
        "Permits",
        "Placards",
        "REAL ID",
        "Records Requests",
        "Replacement Documents",
        "Title Transfers",
        "Vehicle Registration"
      ],
      "hours_detailed": {
        "Sunday": "Closed",
        "Monday": "Closed",
        "Tuesday": "8am-5pm",
        "Wednesday": "Closed",
        "Thursday": "8am-5pm",
        "Friday": "Closed",
        "Saturday": "Closed"
      }
    },
    {
      "id": 58,
      "name": "Hollywood",
      "slug": "hollywood-dmv",
      "phone": "(800) 777-0133",
      "hours": "Monday-Friday: 8:00 AM - 5:00 PM",
      "address": "803 Cole Avenue, Hollywood, CA 90038",
      "services": [
        "Driving Tests",
        "License Plates",
        "Placards",
        "REAL ID",
        "Records Requests",
        "Replacement Documents",
        "Vehicle Registration"
      ],
      "hours_detailed": {
        "Sunday": "Closed",
        "Monday": "8am-5pm",
        "Tuesday": "8am-5pm",
        "Wednesday": "9am-5pm",
        "Thursday": "8am-5pm",
        "Friday": "8am-5pm",
        "Saturday": "Closed"
      }
    },
    {
      "id": 59,
      "name": "Indio",
      "slug": "dmv-indio",
      "phone": "(800) 777-0133",
      "hours": "Monday-Friday: 8:00 AM - 5:00 PM",
      "address": "44480 Jackson St, Indio, CA 92201",
      "services": [
        "Driving Tests",
        "License Plates",
        "Permits",
        "Placards",
        "REAL ID",
        "Records Requests",
        "Replacement Documents",
        "Title Transfers",
        "Vehicle Registration"
      ],
      "hours_detailed": {
        "Sunday": "Closed",
        "Monday": "8am-5pm",
        "Tuesday": "8am-5pm",
        "Wednesday": "9am-5pm",
        "Thursday": "8am-5pm",
        "Friday": "8am-5pm",
        "Saturday": "Closed"
      }
    },
    {
      "id": 60,
      "name": "Inglewood",
      "slug": "inglewood-dmv",
      "phone": "(800) 777-0133",
      "hours": "Monday-Friday: 8:00 AM - 5:00 PM",
      "address": "621 N La Brea Ave, Inglewood, CA 90302",
      "services": [
        "Commercial Driver License",
        "Driving Tests",
        "License Plates",
        "Permits",
        "Placards",
        "REAL ID",
        "Records Requests",
        "Replacement Documents",
        "Title Transfers",
        "Vehicle Registration"
      ],
      "hours_detailed": {
        "Sunday": "Closed",
        "Monday": "Closed",
        "Tuesday": "Closed",
        "Wednesday": "Closed",
        "Thursday": "Closed",
        "Friday": "Closed",
        "Saturday": "Closed"
      }
    },
    {
      "id": 61,
      "name": "Jackson",
      "slug": "dmv-jackson-ca",
      "phone": "(800) 777-0133",
      "hours": "Monday-Friday: 8:00 AM - 5:00 PM",
      "address": "201 Clinton Road, Jackson, CA 95642",
      "services": [
        "Driving Tests",
        "License Plates",
        "Permits",
        "Placards",
        "REAL ID",
        "Records Requests",
        "Replacement Documents",
        "Title Transfers",
        "Vehicle Registration"
      ],
      "hours_detailed": {
        "Sunday": "Closed",
        "Monday": "8am-5pm",
        "Tuesday": "8am-5pm",
        "Wednesday": "9am-5pm",
        "Thursday": "8am-5pm",
        "Friday": "8am-5pm",
        "Saturday": "Closed"
      }
    },
    {
      "id": 62,
      "name": "Laguna Hills",
      "slug": "laguna-hills-dmv",
      "phone": "(800) 777-0133",
      "hours": "Monday-Friday: 8:00 AM - 5:00 PM",
      "address": "23535 Moulton Parkway, Laguna Hills, CA (CLOSED)",
      "services": [
        "Driver License",
        "Vehicle Registration",
        "REAL ID"
      ],
      "status": "CLOSED",
      "closed_date": "2024-10-11",
      "closure_reason": "Office opened in 1987 does not meet current DMV needs. New Mission Viejo location was denied by city.",
      "nearby_offices": [
        "Santa Ana (13 miles)",
        "Costa Mesa (15 miles)",
        "San Clemente (18 miles)"
      ]
    },
    {
      "id": 63,
      "name": "Lake Isabella",
      "slug": "lake-isabella-dmv",
      "phone": "(800) 777-0133",
      "hours": "Monday-Friday: 8:00 AM - 5:00 PM",
      "address": "5520 Lake Isabella Road G-1, Lake Isabella, CA 93240",
      "services": [
        "Driving Tests",
        "License Plates",
        "Permits",
        "Placards",
        "REAL ID",
        "Records Requests",
        "Replacement Documents",
        "Title Transfers",
        "Vehicle Registration"
      ],
      "hours_detailed": {
        "Sunday": "Closed",
        "Monday": "Closed",
        "Tuesday": "8am-5pm",
        "Wednesday": "Closed",
        "Thursday": "8am-5pm",
        "Friday": "Closed",
        "Saturday": "Closed"
      }
    },
    {
      "id": 64,
      "name": "Lakeport",
      "slug": "lakeport-dmv",
      "phone": "(800) 777-0133",
      "hours": "Monday-Friday: 8:00 AM - 5:00 PM",
      "address": "965 Parallel Drive, Lakeport, CA 95453",
      "services": [
        "Driving Tests",
        "License Plates",
        "Permits",
        "Placards",
        "REAL ID",
        "Records Requests",
        "Replacement Documents",
        "Title Transfers",
        "Vehicle Registration"
      ],
      "hours_detailed": {
        "Sunday": "Closed",
        "Monday": "Closed",
        "Tuesday": "8am-5pm",
        "Wednesday": "Closed",
        "Thursday": "8am-5pm",
        "Friday": "Closed",
        "Saturday": "Closed"
      }
    },
    {
      "id": 65,
      "name": "Lancaster",
      "slug": "lancaster-dmv",
      "phone": "(800) 777-0133",
      "hours": "Monday-Friday: 8:00 AM - 5:00 PM",
      "address": "721 W Ave L6, Lancaster, CA 93535",
      "services": [
        "Driving Tests",
        "License Plates",
        "Permits",
        "Placards",
        "REAL ID",
        "Records Requests",
        "Replacement Documents",
        "Title Transfers",
        "Vehicle Registration"
      ],
      "hours_detailed": {
        "Sunday": "Closed",
        "Monday": "8am-5pm",
        "Tuesday": "8am-5pm",
        "Wednesday": "9am-5pm",
        "Thursday": "8am-5pm",
        "Friday": "8am-5pm",
        "Saturday": "Closed"
      }
    },
    {
      "id": 66,
      "name": "Lincoln Park",
      "slug": "lincoln-park-dmv",
      "phone": "(800) 777-0133",
      "hours": "Monday-Friday: 8:00 AM - 5:00 PM",
      "address": "3529 N Mission Road, Los Angeles, CA 90031",
      "services": [
        "Driving Tests",
        "License Plates",
        "Permits",
        "Placards",
        "REAL ID",
        "Records Requests",
        "Replacement Documents",
        "Title Transfers",
        "Vehicle Registration"
      ],
      "hours_detailed": {
        "Sunday": "Closed",
        "Monday": "8am-5pm",
        "Tuesday": "8am-5pm",
        "Wednesday": "9am-5pm",
        "Thursday": "8am-5pm",
        "Friday": "8am-5pm",
        "Saturday": "Closed"
      }
    },
    {
      "id": 67,
      "name": "Lodi",
      "slug": "lodi-dmv",
      "phone": "(800) 777-0133",
      "hours": "Monday-Friday: 8:00 AM - 5:00 PM",
      "address": "1222 Pixley Parkway, Lodi, CA 95240",
      "services": [
        "Driving Tests",
        "License Plates",
        "Permits",
        "Placards",
        "REAL ID",
        "Records Requests",
        "Replacement Documents",
        "Title Transfers",
        "Vehicle Registration"
      ],
      "hours_detailed": {
        "Sunday": "Closed",
        "Monday": "8am-5pm",
        "Tuesday": "8am-5pm",
        "Wednesday": "9am-5pm",
        "Thursday": "8am-5pm",
        "Friday": "8am-5pm",
        "Saturday": "Closed"
      }
    },
    {
      "id": 68,
      "name": "Lompoc",
      "slug": "lompoc-dmv",
      "phone": "(800) 777-0133",
      "hours": "Monday-Friday: 8:00 AM - 5:00 PM",
      "address": "1601 N H St, Lompoc, CA 93436",
      "services": [
        "Driving Tests",
        "License Plates",
        "Permits",
        "Placards",
        "REAL ID",
        "Records Requests",
        "Replacement Documents",
        "Title Transfers",
        "Vehicle Registration"
      ],
      "hours_detailed": {
        "Sunday": "Closed",
        "Monday": "8am-5pm",
        "Tuesday": "8am-5pm",
        "Wednesday": "9am-5pm",
        "Thursday": "8am-5pm",
        "Friday": "8am-5pm",
        "Saturday": "Closed"
      }
    },
    {
      "id": 69,
      "name": "Long Beach",
      "slug": "long-beach-dmv",
      "phone": "(800) 777-0133",
      "hours": "Monday-Friday: 8:00 AM - 5:00 PM",
      "address": "3700 East Willow Street, Long Beach, CA 90815",
      "services": [
        "Commercial Driver License",
        "Driving Tests",
        "License Plates",
        "Permits",
        "Placards",
        "REAL ID",
        "Records Requests",
        "Replacement Documents",
        "Title Transfers",
        "Vehicle Registration"
      ],
      "hours_detailed": {
        "Sunday": "Closed",
        "Monday": "8am-5pm",
        "Tuesday": "8am-5pm",
        "Wednesday": "9am-5pm",
        "Thursday": "8am-5pm",
        "Friday": "8am-5pm",
        "Saturday": "Closed"
      }
    },
    {
      "id": 70,
      "name": "Los Angeles",
      "slug": "dmv-los-angeles",
      "phone": "(800) 777-0133",
      "hours": "Monday-Friday: 8:00 AM - 5:00 PM",
      "address": "3615 S Hope Street, Los Angeles, CA 90007",
      "services": [
        "Commercial Driver License",
        "Driving Tests",
        "License Plates",
        "Permits",
        "Placards",
        "REAL ID",
        "Records Requests",
        "Replacement Documents",
        "Title Transfers",
        "Vehicle Registration"
      ],
      "hours_detailed": {
        "Sunday": "Closed",
        "Monday": "8am-5pm",
        "Tuesday": "8am-5pm",
        "Wednesday": "9am-5pm",
        "Thursday": "8am-5pm",
        "Friday": "8am-5pm",
        "Saturday": "Closed"
      }
    },
    {
      "id": 71,
      "name": "Los Banos",
      "slug": "dmv-los-banos",
      "phone": "(800) 777-0133",
      "hours": "Monday-Friday: 8:00 AM - 5:00 PM",
      "address": "814 West L Street, Los Banos, CA 93635",
      "services": [
        "Driving Tests",
        "License Plates",
        "Permits",
        "Placards",
        "REAL ID",
        "Records Requests",
        "Replacement Documents",
        "Title Transfers",
        "Vehicle Registration"
      ],
      "hours_detailed": {
        "Sunday": "Closed",
        "Monday": "Closed",
        "Tuesday": "8am-5pm",
        "Wednesday": "Closed",
        "Thursday": "8am-5pm",
        "Friday": "Closed",
        "Saturday": "Closed"
      }
    },
    {
      "id": 72,
      "name": "Los Gatos",
      "slug": "los-gatos-dmv",
      "phone": "(800) 777-0133",
      "hours": "Monday-Friday: 8:00 AM - 5:00 PM",
      "address": "600 N Santa Cruz Avenue, Los Gatos, CA 95030",
      "services": [
        "Driving Tests",
        "License Plates",
        "Permits",
        "Placards",
        "REAL ID",
        "Records Requests",
        "Replacement Documents",
        "Title Transfers",
        "Vehicle Registration"
      ],
      "hours_detailed": {
        "Sunday": "Closed",
        "Monday": "8am-5pm",
        "Tuesday": "8am-5pm",
        "Wednesday": "9am-5pm",
        "Thursday": "8am-5pm",
        "Friday": "8am-5pm",
        "Saturday": "Closed"
      }
    },
    {
      "id": 73,
      "name": "Madera",
      "slug": "madera-dmv",
      "phone": "(800) 777-0133",
      "hours": "Monday-Friday: 8:00 AM - 5:00 PM",
      "address": "1206 Maple Street, Madera, CA 93637",
      "services": [
        "Driving Tests",
        "License Plates",
        "Permits",
        "Placards",
        "REAL ID",
        "Records Requests",
        "Replacement Documents",
        "Title Transfers",
        "Vehicle Registration"
      ],
      "hours_detailed": {
        "Sunday": "Closed",
        "Monday": "8am-5pm",
        "Tuesday": "8am-5pm",
        "Wednesday": "9am-5pm",
        "Thursday": "8am-5pm",
        "Friday": "8am-5pm",
        "Saturday": "Closed"
      }
    },
    {
      "id": 74,
      "name": "Manteca",
      "slug": "manteca-dmv",
      "phone": "(800) 777-0133",
      "hours": "Monday-Friday: 8:00 AM - 5:00 PM",
      "address": "955 Davis Street, Manteca, CA 95336",
      "services": [
        "Driving Tests",
        "License Plates",
        "Permits",
        "Placards",
        "REAL ID",
        "Records Requests",
        "Replacement Documents",
        "Title Transfers",
        "Vehicle Registration"
      ],
      "hours_detailed": {
        "Sunday": "Closed",
        "Monday": "8am-5pm",
        "Tuesday": "8am-5pm",
        "Wednesday": "9am-5pm",
        "Thursday": "8am-5pm",
        "Friday": "8am-5pm",
        "Saturday": "Closed"
      }
    },
    {
      "id": 75,
      "name": "Mariposa",
      "slug": "mariposa-dmv",
      "phone": "(800) 777-0133",
      "hours": "Monday-Friday: 8:00 AM - 5:00 PM",
      "address": "5264 Highway 49-North, Mariposa, CA 95338",
      "services": [
        "Driving Tests",
        "License Plates",
        "Permits",
        "Placards",
        "REAL ID",
        "Records Requests",
        "Replacement Documents",
        "Title Transfers",
        "Vehicle Registration"
      ],
      "hours_detailed": {
        "Sunday": "Closed",
        "Monday": "Closed",
        "Tuesday": "8am-5pm",
        "Wednesday": "Closed",
        "Thursday": "8am-5pm",
        "Friday": "Closed",
        "Saturday": "Closed"
      }
    },
    {
      "id": 76,
      "name": "Mendota",
      "slug": "mendota-dmv",
      "phone": "(800) 777-0133",
      "hours": "Monday-Friday: 8:00 AM - 5:00 PM",
      "address": "655 Quince Street, Mendota, CA 93640",
      "services": [
        "Driving Tests",
        "License Plates",
        "Placards",
        "REAL ID",
        "Records Requests",
        "Replacement Documents",
        "Vehicle Registration"
      ],
      "hours_detailed": {
        "Sunday": "Closed",
        "Monday": "Closed",
        "Tuesday": "Closed",
        "Wednesday": "Closed",
        "Thursday": "Closed",
        "Friday": "Closed",
        "Saturday": "Closed"
      }
    },
    {
      "id": 77,
      "name": "Merced",
      "slug": "merced-dmv",
      "phone": "(800) 777-0133",
      "hours": "Monday-Friday: 8:00 AM - 5:00 PM",
      "address": "1313 W 12th Street, Merced, CA 95340",
      "services": [
        "Driving Tests",
        "License Plates",
        "Permits",
        "Placards",
        "REAL ID",
        "Records Requests",
        "Replacement Documents",
        "Title Transfers",
        "Vehicle Registration"
      ],
      "hours_detailed": {
        "Sunday": "Closed",
        "Monday": "8am-5pm",
        "Tuesday": "8am-5pm",
        "Wednesday": "9am-5pm",
        "Thursday": "8am-5pm",
        "Friday": "8am-5pm",
        "Saturday": "Closed"
      }
    },
    {
      "id": 78,
      "name": "Modesto",
      "slug": "dmv-modesto",
      "phone": "(800) 777-0133",
      "hours": "Monday-Friday: 8:00 AM - 5:00 PM",
      "address": "124 Burney Street, Modesto, CA 95354",
      "services": [
        "Driving Tests",
        "License Plates",
        "Permits",
        "Placards",
        "REAL ID",
        "Records Requests",
        "Replacement Documents",
        "Title Transfers",
        "Vehicle Registration"
      ],
      "hours_detailed": {
        "Sunday": "Closed",
        "Monday": "8am-5pm",
        "Tuesday": "8am-5pm",
        "Wednesday": "9am-5pm",
        "Thursday": "8am-5pm",
        "Friday": "8am-5pm",
        "Saturday": "Closed"
      }
    },
    {
      "id": 79,
      "name": "Montebello",
      "slug": "montebello-dmv",
      "phone": "(800) 777-0133",
      "hours": "Monday-Friday: 8:00 AM - 5:00 PM",
      "address": "424 N Wilcox Avenue, Montebello, CA 90640",
      "services": [
        "Driving Tests",
        "License Plates",
        "Permits",
        "Placards",
        "REAL ID",
        "Records Requests",
        "Replacement Documents",
        "Title Transfers",
        "Vehicle Registration"
      ],
      "hours_detailed": {
        "Sunday": "Closed",
        "Monday": "8am-5pm",
        "Tuesday": "8am-5pm",
        "Wednesday": "9am-5pm",
        "Thursday": "8am-5pm",
        "Friday": "8am-5pm",
        "Saturday": "Closed"
      }
    },
    {
      "id": 80,
      "name": "Mt Shasta",
      "slug": "mt-shasta-dmv",
      "phone": "(800) 777-0133",
      "hours": "Monday-Friday: 8:00 AM - 5:00 PM",
      "address": "154 Morgan Way, Mt Shasta, CA 96067",
      "services": [
        "Driving Tests",
        "License Plates",
        "Permits",
        "Placards",
        "REAL ID",
        "Records Requests",
        "Replacement Documents",
        "Title Transfers",
        "Vehicle Registration"
      ],
      "hours_detailed": {
        "Sunday": "Closed",
        "Monday": "Closed",
        "Tuesday": "8am-5pm",
        "Wednesday": "Closed",
        "Thursday": "8am-5pm",
        "Friday": "Closed",
        "Saturday": "Closed"
      }
    },
    {
      "id": 81,
      "name": "Napa",
      "slug": "napa-dmv",
      "phone": "(800) 777-0133",
      "hours": "Monday-Friday: 8:00 AM - 5:00 PM",
      "address": "2550 Napa Valley Corporate Drive, Napa, CA 94558",
      "services": [
        "Driving Tests",
        "License Plates",
        "Permits",
        "Placards",
        "REAL ID",
        "Records Requests",
        "Replacement Documents",
        "Title Transfers",
        "Vehicle Registration"
      ],
      "hours_detailed": {
        "Sunday": "Closed",
        "Monday": "8am-5pm",
        "Tuesday": "8am-5pm",
        "Wednesday": "9am-5pm",
        "Thursday": "8am-5pm",
        "Friday": "8am-5pm",
        "Saturday": "Closed"
      }
    },
    {
      "id": 82,
      "name": "Needles",
      "slug": "needles-dmv",
      "phone": "(800) 777-0133",
      "hours": "Monday-Friday: 8:00 AM - 5:00 PM",
      "address": "1040 E Broadway St, Needles, CA 92363",
      "services": [
        "Driving Tests",
        "License Plates",
        "Permits",
        "Placards",
        "REAL ID",
        "Records Requests",
        "Replacement Documents",
        "Title Transfers",
        "Vehicle Registration"
      ],
      "hours_detailed": {
        "Sunday": "Closed",
        "Monday": "8am-5pm",
        "Tuesday": "Closed",
        "Wednesday": "9am-5pm",
        "Thursday": "Closed",
        "Friday": "8am-5pm",
        "Saturday": "Closed"
      }
    },
    {
      "id": 83,
      "name": "Newhall",
      "slug": "newhall-dmv",
      "phone": "(800) 777-0133",
      "hours": "Monday-Friday: 8:00 AM - 5:00 PM",
      "address": "24427 Newhall Avenue, Newhall, CA 91321",
      "services": [
        "Driving Tests",
        "License Plates",
        "Permits",
        "Placards",
        "REAL ID",
        "Records Requests",
        "Replacement Documents",
        "Title Transfers",
        "Vehicle Registration"
      ],
      "hours_detailed": {
        "Sunday": "Closed",
        "Monday": "8am-5pm",
        "Tuesday": "8am-5pm",
        "Wednesday": "9am-5pm",
        "Thursday": "8am-5pm",
        "Friday": "8am-5pm",
        "Saturday": "Closed"
      }
    },
    {
      "id": 84,
      "name": "Norco",
      "slug": "norco-dmv",
      "phone": "(800) 777-0133",
      "hours": "Monday-Friday: 8:00 AM - 5:00 PM",
      "address": "3201 Horseless Carriage Drive, Norco, CA 92860",
      "services": [
        "Driving Tests",
        "License Plates",
        "Permits",
        "Placards",
        "REAL ID",
        "Records Requests",
        "Replacement Documents",
        "Title Transfers",
        "Vehicle Registration"
      ],
      "hours_detailed": {
        "Sunday": "Closed",
        "Monday": "8am-5pm",
        "Tuesday": "8am-5pm",
        "Wednesday": "9am-5pm",
        "Thursday": "8am-5pm",
        "Friday": "8am-5pm",
        "Saturday": "Closed"
      }
    },
    {
      "id": 85,
      "name": "Novato",
      "slug": "novato-dmv",
      "phone": "(800) 777-0133",
      "hours": "Monday-Friday: 8:00 AM - 5:00 PM",
      "address": "936 7th Street A, Novato, CA 94947",
      "services": [
        "Driving Tests",
        "License Plates",
        "Permits",
        "Placards",
        "REAL ID",
        "Records Requests",
        "Replacement Documents",
        "Title Transfers",
        "Vehicle Registration"
      ],
      "hours_detailed": {
        "Sunday": "Closed",
        "Monday": "8am-5pm",
        "Tuesday": "8am-5pm",
        "Wednesday": "9am-5pm",
        "Thursday": "8am-5pm",
        "Friday": "8am-5pm",
        "Saturday": "Closed"
      }
    },
    {
      "id": 86,
      "name": "Oakland",
      "slug": "oakland-dmv",
      "phone": "(800) 777-0133",
      "hours": "Monday-Friday: 8:00 AM - 5:00 PM",
      "address": "5300 Claremont Avenue, Oakland, CA 94618",
      "services": [
        "Driving Tests",
        "License Plates",
        "Permits",
        "Placards",
        "REAL ID",
        "Records Requests",
        "Replacement Documents",
        "Title Transfers",
        "Vehicle Registration"
      ],
      "hours_detailed": {
        "Sunday": "Closed",
        "Monday": "8am-5pm",
        "Tuesday": "8am-5pm",
        "Wednesday": "9am-5pm",
        "Thursday": "8am-5pm",
        "Friday": "8am-5pm",
        "Saturday": "Closed"
      }
    },
    {
      "id": 87,
      "name": "Oakland Coliseum",
      "slug": "oakland-coliseum-dmv",
      "phone": "(800) 777-0133",
      "hours": "Monday-Friday: 8:00 AM - 5:00 PM",
      "address": "501 85th Ave, Oakland, CA 94621",
      "services": [
        "Driving Tests",
        "License Plates",
        "Permits",
        "Placards",
        "REAL ID",
        "Records Requests",
        "Replacement Documents",
        "Title Transfers",
        "Vehicle Registration"
      ],
      "hours_detailed": {
        "Sunday": "Closed",
        "Monday": "8am-5pm",
        "Tuesday": "8am-5pm",
        "Wednesday": "9am-5pm",
        "Thursday": "8am-5pm",
        "Friday": "8am-5pm",
        "Saturday": "Closed"
      }
    },
    {
      "id": 88,
      "name": "Oceanside",
      "slug": "dmv-oceanside",
      "phone": "(800) 777-0133",
      "hours": "Monday-Friday: 8:00 AM - 5:00 PM",
      "address": "4005 Plaza Drive, Oceanside, CA 92056",
      "services": [
        "Driving Tests",
        "License Plates",
        "Permits",
        "Placards",
        "REAL ID",
        "Records Requests",
        "Replacement Documents",
        "Title Transfers",
        "Vehicle Registration"
      ],
      "hours_detailed": {
        "Sunday": "Closed",
        "Monday": "8am-5pm",
        "Tuesday": "8am-5pm",
        "Wednesday": "9am-5pm",
        "Thursday": "8am-5pm",
        "Friday": "8am-5pm",
        "Saturday": "Closed"
      }
    },
    {
      "id": 89,
      "name": "Oroville",
      "slug": "oroville-dmv",
      "phone": "(800) 777-0133",
      "hours": "Monday-Friday: 8:00 AM - 5:00 PM",
      "address": "775 Mitchell Avenue, Oroville, CA 95965",
      "services": [
        "Driving Tests",
        "License Plates",
        "Permits",
        "Placards",
        "REAL ID",
        "Records Requests",
        "Replacement Documents",
        "Title Transfers",
        "Vehicle Registration"
      ],
      "hours_detailed": {
        "Sunday": "Closed",
        "Monday": "8am-5pm",
        "Tuesday": "8am-5pm",
        "Wednesday": "9am-5pm",
        "Thursday": "8am-5pm",
        "Friday": "8am-5pm",
        "Saturday": "Closed"
      }
    },
    {
      "id": 90,
      "name": "Oxnard",
      "slug": "oxnard-dmv",
      "phone": "(800) 777-0133",
      "hours": "Monday-Friday: 8:00 AM - 5:00 PM",
      "address": "4050 Saviers Road, Oxnard, CA 93033",
      "services": [
        "Driving Tests",
        "License Plates",
        "Permits",
        "Placards",
        "REAL ID",
        "Records Requests",
        "Replacement Documents",
        "Title Transfers",
        "Vehicle Registration"
      ],
      "hours_detailed": {
        "Sunday": "Closed",
        "Monday": "8am-5pm",
        "Tuesday": "8am-5pm",
        "Wednesday": "9am-5pm",
        "Thursday": "8am-5pm",
        "Friday": "8am-5pm",
        "Saturday": "Closed"
      }
    },
    {
      "id": 91,
      "name": "Palm Desert",
      "slug": "dmv-palm-desert",
      "phone": "(800) 777-0133",
      "hours": "Monday-Friday: 8:00 AM - 5:00 PM",
      "address": "74-740 Technology Drive, Palm Desert, CA 92211",
      "services": [
        "Driving Tests",
        "License Plates",
        "Permits",
        "Placards",
        "REAL ID",
        "Records Requests",
        "Replacement Documents",
        "Title Transfers",
        "Vehicle Registration"
      ],
      "hours_detailed": {
        "Sunday": "Closed",
        "Monday": "8am-5pm",
        "Tuesday": "8am-5pm",
        "Wednesday": "9am-5pm",
        "Thursday": "8am-5pm",
        "Friday": "8am-5pm",
        "Saturday": "Closed"
      }
    },
    {
      "id": 92,
      "name": "Palm Springs",
      "slug": "dmv-palm-springs",
      "phone": "(800) 777-0133",
      "hours": "Monday-Friday: 8:00 AM - 5:00 PM",
      "address": "950 N Farrell Drive, Palm Springs, CA 92262",
      "services": [
        "Driving Tests",
        "License Plates",
        "Permits",
        "Placards",
        "REAL ID",
        "Records Requests",
        "Replacement Documents",
        "Title Transfers",
        "Vehicle Registration"
      ],
      "hours_detailed": {
        "Sunday": "Closed",
        "Monday": "8am-5pm",
        "Tuesday": "8am-5pm",
        "Wednesday": "9am-5pm",
        "Thursday": "8am-5pm",
        "Friday": "8am-5pm",
        "Saturday": "Closed"
      }
    },
    {
      "id": 93,
      "name": "Paradise",
      "slug": "dmv-paradise-ca",
      "phone": "(800) 777-0133",
      "hours": "Monday-Friday: 8:00 AM - 5:00 PM",
      "address": "",
      "services": [
        "Driver License",
        "Vehicle Registration",
        "REAL ID"
      ]
    },
    {
      "id": 94,
      "name": "Pasadena",
      "slug": "pasadena-dmv",
      "phone": "(800) 777-0133",
      "hours": "Monday-Friday: 8:00 AM - 5:00 PM",
      "address": "49 S Rosemead Boulevard, Pasadena, CA 91107",
      "services": [
        "Driving Tests",
        "License Plates",
        "Permits",
        "Placards",
        "REAL ID",
        "Records Requests",
        "Replacement Documents",
        "Title Transfers",
        "Vehicle Registration"
      ],
      "hours_detailed": {
        "Sunday": "Closed",
        "Monday": "8am-5pm",
        "Tuesday": "8am-5pm",
        "Wednesday": "9am-5pm",
        "Thursday": "8am-5pm",
        "Friday": "8am-5pm",
        "Saturday": "Closed"
      }
    },
    {
      "id": 95,
      "name": "Paso Robles",
      "slug": "dmv-paso-robles",
      "phone": "(800) 777-0133",
      "hours": "Monday-Friday: 8:00 AM - 5:00 PM",
      "address": "841 Park Street, Paso Robles, CA 93446",
      "services": [
        "Driving Tests",
        "License Plates",
        "Permits",
        "Placards",
        "REAL ID",
        "Records Requests",
        "Replacement Documents",
        "Title Transfers",
        "Vehicle Registration"
      ],
      "hours_detailed": {
        "Sunday": "Closed",
        "Monday": "8am-5pm",
        "Tuesday": "8am-5pm",
        "Wednesday": "9am-5pm",
        "Thursday": "8am-5pm",
        "Friday": "8am-5pm",
        "Saturday": "Closed"
      }
    },
    {
      "id": 96,
      "name": "Petaluma",
      "slug": "petaluma-dmv",
      "phone": "(800) 777-0133",
      "hours": "Monday-Friday: 8:00 AM - 5:00 PM",
      "address": "715 - J Southpoint Boulevard, Petaluma, CA 94954",
      "services": [
        "Driving Tests",
        "License Plates",
        "Permits",
        "Placards",
        "REAL ID",
        "Records Requests",
        "Replacement Documents",
        "Title Transfers",
        "Vehicle Registration"
      ],
      "hours_detailed": {
        "Sunday": "Closed",
        "Monday": "8am-5pm",
        "Tuesday": "8am-5pm",
        "Wednesday": "9am-5pm",
        "Thursday": "8am-5pm",
        "Friday": "8am-5pm",
        "Saturday": "Closed"
      }
    },
    {
      "id": 97,
      "name": "Pittsburg",
      "slug": "pittsburg-dmv",
      "phone": "(800) 777-0133",
      "hours": "Monday-Friday: 8:00 AM - 5:00 PM",
      "address": "1399 Buchanan Road, Pittsburg, CA 94565",
      "services": [
        "Driving Tests",
        "License Plates",
        "Permits",
        "Placards",
        "REAL ID",
        "Records Requests",
        "Replacement Documents",
        "Title Transfers",
        "Vehicle Registration"
      ],
      "hours_detailed": {
        "Sunday": "Closed",
        "Monday": "8am-5pm",
        "Tuesday": "8am-5pm",
        "Wednesday": "9am-5pm",
        "Thursday": "8am-5pm",
        "Friday": "8am-5pm",
        "Saturday": "Closed"
      }
    },
    {
      "id": 98,
      "name": "Placerville",
      "slug": "placerville-dmv",
      "phone": "(800) 777-0133",
      "hours": "Monday-Friday: 8:00 AM - 5:00 PM",
      "address": "2919 Cold Springs Road, Placerville, CA 95667",
      "services": [
        "Driving Tests",
        "License Plates",
        "Permits",
        "Placards",
        "REAL ID",
        "Records Requests",
        "Replacement Documents",
        "Title Transfers",
        "Vehicle Registration"
      ],
      "hours_detailed": {
        "Sunday": "Closed",
        "Monday": "8am-5pm",
        "Tuesday": "8am-5pm",
        "Wednesday": "9am-5pm",
        "Thursday": "8am-5pm",
        "Friday": "8am-5pm",
        "Saturday": "Closed"
      }
    },
    {
      "id": 99,
      "name": "Pleasanton",
      "slug": "dmv-pleasanton",
      "phone": "(800) 777-0133",
      "hours": "Monday-Friday: 8:00 AM - 5:00 PM",
      "address": "6300 W Las Positas Blvd, Pleasanton, CA 94588",
      "services": [
        "Driving Tests",
        "License Plates",
        "Permits",
        "Placards",
        "REAL ID",
        "Records Requests",
        "Replacement Documents",
        "Title Transfers",
        "Vehicle Registration"
      ],
      "hours_detailed": {
        "Sunday": "Closed",
        "Monday": "8am-5pm",
        "Tuesday": "8am-5pm",
        "Wednesday": "9am-5pm",
        "Thursday": "8am-5pm",
        "Friday": "8am-5pm",
        "Saturday": "Closed"
      }
    },
    {
      "id": 100,
      "name": "Pomona",
      "slug": "pomona-dmv",
      "phone": "(800) 777-0133",
      "hours": "Monday-Friday: 8:00 AM - 5:00 PM",
      "address": "1600 S Garey Avenue, Pomona, CA 91766",
      "services": [
        "Driving Tests",
        "License Plates",
        "Permits",
        "Placards",
        "REAL ID",
        "Records Requests",
        "Replacement Documents",
        "Title Transfers",
        "Vehicle Registration"
      ],
      "hours_detailed": {
        "Sunday": "Closed",
        "Monday": "8am-5pm",
        "Tuesday": "8am-5pm",
        "Wednesday": "9am-5pm",
        "Thursday": "8am-5pm",
        "Friday": "8am-5pm",
        "Saturday": "Closed"
      }
    },
    {
      "id": 101,
      "name": "Porterville",
      "slug": "porterville-dmv",
      "phone": "(800) 777-0133",
      "hours": "Monday-Friday: 8:00 AM - 5:00 PM",
      "address": "329 E Olive Avenue, Porterville, CA 93257",
      "services": [
        "Driving Tests",
        "License Plates",
        "Permits",
        "Placards",
        "REAL ID",
        "Records Requests",
        "Replacement Documents",
        "Title Transfers",
        "Vehicle Registration"
      ],
      "hours_detailed": {
        "Sunday": "Closed",
        "Monday": "8am-5pm",
        "Tuesday": "8am-5pm",
        "Wednesday": "9am-5pm",
        "Thursday": "8am-5pm",
        "Friday": "8am-5pm",
        "Saturday": "Closed"
      }
    },
    {
      "id": 102,
      "name": "Poway",
      "slug": "poway-dmv",
      "phone": "(800) 777-0133",
      "hours": "Monday-Friday: 8:00 AM - 5:00 PM",
      "address": "13461 Community Road, Poway, CA 92064",
      "services": [
        "Driving Tests",
        "License Plates",
        "Permits",
        "Placards",
        "REAL ID",
        "Records Requests",
        "Replacement Documents",
        "Title Transfers",
        "Vehicle Registration"
      ],
      "hours_detailed": {
        "Sunday": "Closed",
        "Monday": "8am-5pm",
        "Tuesday": "8am-5pm",
        "Wednesday": "9am-5pm",
        "Thursday": "8am-5pm",
        "Friday": "8am-5pm",
        "Saturday": "Closed"
      }
    },
    {
      "id": 103,
      "name": "Quincy",
      "slug": "quincy-dmv",
      "phone": "(800) 777-0133",
      "hours": "Monday-Friday: 8:00 AM - 5:00 PM",
      "address": "1953 E Main Street Suite 3, Quincy, CA 95971",
      "services": [
        "Driving Tests",
        "License Plates",
        "Permits",
        "Placards",
        "REAL ID",
        "Records Requests",
        "Replacement Documents",
        "Title Transfers",
        "Vehicle Registration"
      ],
      "hours_detailed": {
        "Sunday": "Closed",
        "Monday": "Closed",
        "Tuesday": "8am-5pm",
        "Wednesday": "Closed",
        "Thursday": "8am-5pm",
        "Friday": "Closed",
        "Saturday": "Closed"
      }
    },
    {
      "id": 104,
      "name": "Rancho Cucamonga",
      "slug": "rancho-cucamonga-dmv",
      "phone": "(800) 777-0133",
      "hours": "Monday-Friday: 8:00 AM - 5:00 PM",
      "address": "8629 Hellman Avenue, Rancho Cucamonga, CA 91730",
      "services": [
        "Commercial Driver License",
        "Driving Tests",
        "License Plates",
        "Permits",
        "Placards",
        "REAL ID",
        "Records Requests",
        "Replacement Documents",
        "Title Transfers",
        "Vehicle Registration"
      ],
      "hours_detailed": {
        "Sunday": "Closed",
        "Monday": "8am-5pm",
        "Tuesday": "8am-5pm",
        "Wednesday": "9am-5pm",
        "Thursday": "8am-5pm",
        "Friday": "8am-5pm",
        "Saturday": "Closed"
      }
    },
    {
      "id": 105,
      "name": "Rancho San Diego Industry Business Center",
      "slug": "rancho-san-diego-industry-business-center",
      "phone": "(800) 777-0133",
      "hours": "Monday-Friday: 8:00 AM - 5:00 PM",
      "address": "1530 Hilton Head Rd., El Cajon, CA 92019",
      "services": [
        "Driving Tests",
        "License Plates",
        "Placards",
        "REAL ID",
        "Records Requests",
        "Replacement Documents",
        "Vehicle Registration"
      ],
      "hours_detailed": {
        "Sunday": "Closed",
        "Monday": "7am-4pm",
        "Tuesday": "7am-4pm",
        "Wednesday": "8am-4pm",
        "Thursday": "7am-4pm",
        "Friday": "7am-4pm",
        "Saturday": "Closed"
      }
    },
    {
      "id": 106,
      "name": "Red Bluff",
      "slug": "red-bluff-dmv",
      "phone": "(800) 777-0133",
      "hours": "Monday-Friday: 8:00 AM - 5:00 PM",
      "address": "675 Monroe Street, Red Bluff, CA 96080",
      "services": [
        "Driving Tests",
        "License Plates",
        "Permits",
        "Placards",
        "REAL ID",
        "Records Requests",
        "Replacement Documents",
        "Title Transfers",
        "Vehicle Registration"
      ],
      "hours_detailed": {
        "Sunday": "Closed",
        "Monday": "8am-5pm",
        "Tuesday": "Closed",
        "Wednesday": "9am-5pm",
        "Thursday": "Closed",
        "Friday": "8am-5pm",
        "Saturday": "Closed"
      }
    },
    {
      "id": 107,
      "name": "Redding",
      "slug": "dmv-redding-ca",
      "phone": "(800) 777-0133",
      "hours": "Monday-Friday: 8:00 AM - 5:00 PM",
      "address": "2135 Civic Center Drive, Redding, CA 96001",
      "services": [
        "Driving Tests",
        "License Plates",
        "Permits",
        "Placards",
        "REAL ID",
        "Records Requests",
        "Replacement Documents",
        "Title Transfers",
        "Vehicle Registration"
      ],
      "hours_detailed": {
        "Sunday": "Closed",
        "Monday": "8am-5pm",
        "Tuesday": "8am-5pm",
        "Wednesday": "9am-5pm",
        "Thursday": "8am-5pm",
        "Friday": "8am-5pm",
        "Saturday": "Closed"
      }
    },
    {
      "id": 108,
      "name": "Redlands",
      "slug": "redlands-dmv",
      "phone": "(800) 777-0133",
      "hours": "Monday-Friday: 8:00 AM - 5:00 PM",
      "address": "1659 W Lugonia Avenue, Redlands, CA 92374",
      "services": [
        "Driving Tests",
        "License Plates",
        "Permits",
        "Placards",
        "REAL ID",
        "Records Requests",
        "Replacement Documents",
        "Title Transfers",
        "Vehicle Registration"
      ],
      "hours_detailed": {
        "Sunday": "Closed",
        "Monday": "8am-5pm",
        "Tuesday": "8am-5pm",
        "Wednesday": "9am-5pm",
        "Thursday": "8am-5pm",
        "Friday": "8am-5pm",
        "Saturday": "Closed"
      }
    },
    {
      "id": 109,
      "name": "Redwood City",
      "slug": "redwood-city-dmv",
      "phone": "(800) 777-0133",
      "hours": "Monday-Friday: 8:00 AM - 5:00 PM",
      "address": "300 Brewster Avenue, Redwood City, CA 94063",
      "services": [
        "Driving Tests",
        "License Plates",
        "Permits",
        "Placards",
        "REAL ID",
        "Records Requests",
        "Replacement Documents",
        "Title Transfers",
        "Vehicle Registration"
      ],
      "hours_detailed": {
        "Sunday": "Closed",
        "Monday": "8am-5pm",
        "Tuesday": "8am-5pm",
        "Wednesday": "9am-5pm",
        "Thursday": "8am-5pm",
        "Friday": "8am-5pm",
        "Saturday": "Closed"
      }
    },
    {
      "id": 110,
      "name": "Reedley",
      "slug": "reedley-dmv",
      "phone": "(800) 777-0133",
      "hours": "Monday-Friday: 8:00 AM - 5:00 PM",
      "address": "1890 E Dinuba Avenue, Reedley, CA 93654",
      "services": [
        "Driving Tests",
        "License Plates",
        "Permits",
        "Placards",
        "REAL ID",
        "Records Requests",
        "Replacement Documents",
        "Title Transfers",
        "Vehicle Registration"
      ],
      "hours_detailed": {
        "Sunday": "Closed",
        "Monday": "8am-5pm",
        "Tuesday": "8am-5pm",
        "Wednesday": "9am-5pm",
        "Thursday": "8am-5pm",
        "Friday": "8am-5pm",
        "Saturday": "Closed"
      }
    },
    {
      "id": 111,
      "name": "Ridgecrest",
      "slug": "ridgecrest-dmv",
      "phone": "(800) 777-0133",
      "hours": "Monday-Friday: 8:00 AM - 5:00 PM",
      "address": "540A Perdew Avenue, Ridgecrest, CA 93555",
      "services": [
        "Driving Tests",
        "License Plates",
        "Permits",
        "Placards",
        "REAL ID",
        "Records Requests",
        "Replacement Documents",
        "Title Transfers",
        "Vehicle Registration"
      ],
      "hours_detailed": {
        "Sunday": "Closed",
        "Monday": "8am-5pm",
        "Tuesday": "Closed",
        "Wednesday": "9am-5pm",
        "Thursday": "Closed",
        "Friday": "8am-5pm",
        "Saturday": "Closed"
      }
    },
    {
      "id": 112,
      "name": "Riverside",
      "slug": "riverside-dmv",
      "phone": "(800) 777-0133",
      "hours": "Monday-Friday: 8:00 AM - 5:00 PM",
      "address": "6280 Brockton Avenue, Riverside, CA 92506",
      "services": [
        "Commercial Driver License",
        "Driving Tests",
        "License Plates",
        "Permits",
        "Placards",
        "REAL ID",
        "Records Requests",
        "Replacement Documents",
        "Title Transfers",
        "Vehicle Registration"
      ],
      "hours_detailed": {
        "Sunday": "Closed",
        "Monday": "8am-5pm",
        "Tuesday": "8am-5pm",
        "Wednesday": "9am-5pm",
        "Thursday": "8am-5pm",
        "Friday": "8am-5pm",
        "Saturday": "Closed"
      }
    },
    {
      "id": 113,
      "name": "Riverside East",
      "slug": "riverside-east-dmv",
      "phone": "(800) 777-0133",
      "hours": "Monday-Friday: 8:00 AM - 5:00 PM",
      "address": "6425 Sycamore Canyon Blvd, Riverside, CA 92507",
      "services": [
        "Commercial Driver License",
        "Driving Tests",
        "License Plates",
        "Permits",
        "Placards",
        "REAL ID",
        "Records Requests",
        "Replacement Documents",
        "Title Transfers",
        "Vehicle Registration"
      ],
      "hours_detailed": {
        "Sunday": "Closed",
        "Monday": "8am-5pm",
        "Tuesday": "8am-5pm",
        "Wednesday": "9am-5pm",
        "Thursday": "8am-5pm",
        "Friday": "8am-5pm",
        "Saturday": "Closed"
      }
    },
    {
      "id": 114,
      "name": "Rocklin",
      "slug": "rocklin-dmv",
      "phone": "(800) 777-0133",
      "hours": "Monday-Friday: 8:00 AM - 5:00 PM",
      "address": "5245 South Grove, Rocklin, CA 95677",
      "services": [
        "Driving Tests",
        "License Plates",
        "Permits",
        "Placards",
        "REAL ID",
        "Records Requests",
        "Replacement Documents",
        "Title Transfers",
        "Vehicle Registration"
      ],
      "hours_detailed": {
        "Sunday": "Closed",
        "Monday": "8am-5pm",
        "Tuesday": "8am-5pm",
        "Wednesday": "9am-5pm",
        "Thursday": "8am-5pm",
        "Friday": "8am-5pm",
        "Saturday": "Closed"
      }
    },
    {
      "id": 115,
      "name": "Roseville",
      "slug": "roseville-dmv",
      "phone": "(800) 777-0133",
      "hours": "Monday-Friday: 8:00 AM - 5:00 PM",
      "address": "7200 Galilee Road, Roseville, CA 95678",
      "services": [
        "Driving Tests",
        "License Plates",
        "Permits",
        "Placards",
        "REAL ID",
        "Records Requests",
        "Replacement Documents",
        "Title Transfers",
        "Vehicle Registration"
      ],
      "hours_detailed": {
        "Sunday": "Closed",
        "Monday": "8am-5pm",
        "Tuesday": "8am-5pm",
        "Wednesday": "9am-5pm",
        "Thursday": "8am-5pm",
        "Friday": "8am-5pm",
        "Saturday": "Closed"
      }
    },
    {
      "id": 116,
      "name": "Sacramento",
      "slug": "dmv-sacramento",
      "phone": "(800) 777-0133",
      "hours": "Monday-Friday: 8:00 AM - 5:00 PM",
      "address": "4700 Broadway, Sacramento, CA 95820",
      "services": [
        "Commercial Driver License",
        "Driving Tests",
        "License Plates",
        "Permits",
        "Placards",
        "REAL ID",
        "Records Requests",
        "Replacement Documents",
        "Title Transfers",
        "Vehicle Registration"
      ],
      "hours_detailed": {
        "Sunday": "Closed",
        "Monday": "8am-5pm",
        "Tuesday": "8am-5pm",
        "Wednesday": "9am-5pm",
        "Thursday": "8am-5pm",
        "Friday": "8am-5pm",
        "Saturday": "Closed"
      }
    },
    {
      "id": 117,
      "name": "Sacramento South",
      "slug": "dmv-south-sacramento",
      "phone": "(800) 777-0133",
      "hours": "Monday-Friday: 8:00 AM - 5:00 PM",
      "address": "7775 La Mancha Way, Sacramento, CA 95823",
      "services": [
        "Commercial Driver License",
        "Driving Tests",
        "License Plates",
        "Permits",
        "Placards",
        "REAL ID",
        "Records Requests",
        "Replacement Documents",
        "Title Transfers",
        "Vehicle Registration"
      ],
      "hours_detailed": {
        "Sunday": "Closed",
        "Monday": "8am-5pm",
        "Tuesday": "8am-5pm",
        "Wednesday": "9am-5pm",
        "Thursday": "8am-5pm",
        "Friday": "8am-5pm",
        "Saturday": "Closed"
      }
    },
    {
      "id": 118,
      "name": "Salinas",
      "slug": "dmv-salinas",
      "phone": "(800) 777-0133",
      "hours": "Monday-Friday: 8:00 AM - 5:00 PM",
      "address": "260 E Laurel Drive, Salinas, CA 93906",
      "services": [
        "Commercial Driver License",
        "Driving Tests",
        "License Plates",
        "Permits",
        "Placards",
        "REAL ID",
        "Records Requests",
        "Replacement Documents",
        "Title Transfers",
        "Vehicle Registration"
      ],
      "hours_detailed": {
        "Sunday": "Closed",
        "Monday": "8am-5pm",
        "Tuesday": "8am-5pm",
        "Wednesday": "9am-5pm",
        "Thursday": "8am-5pm",
        "Friday": "8am-5pm",
        "Saturday": "Closed"
      }
    },
    {
      "id": 119,
      "name": "San Andreas",
      "slug": "san-andreas-dmv",
      "phone": "(800) 777-0133",
      "hours": "Monday-Friday: 8:00 AM - 5:00 PM",
      "address": "745 Mountain Ranch Rd, San Andreas, CA 95249",
      "services": [
        "Driving Tests",
        "License Plates",
        "Permits",
        "Placards",
        "REAL ID",
        "Records Requests",
        "Replacement Documents",
        "Title Transfers",
        "Vehicle Registration"
      ],
      "hours_detailed": {
        "Sunday": "Closed",
        "Monday": "Closed",
        "Tuesday": "8am-5pm",
        "Wednesday": "Closed",
        "Thursday": "8am-5pm",
        "Friday": "Closed",
        "Saturday": "Closed"
      }
    },
    {
      "id": 120,
      "name": "San Bernardino",
      "slug": "dmv-san-bernardino",
      "phone": "(800) 777-0133",
      "hours": "Monday-Friday: 8:00 AM - 5:00 PM",
      "address": "1310 N Waterman Avenue, San Bernardino, CA 92404",
      "services": [
        "Driving Tests",
        "License Plates",
        "Permits",
        "Placards",
        "REAL ID",
        "Records Requests",
        "Replacement Documents",
        "Title Transfers",
        "Vehicle Registration"
      ],
      "hours_detailed": {
        "Sunday": "Closed",
        "Monday": "8am-5pm",
        "Tuesday": "8am-5pm",
        "Wednesday": "9am-5pm",
        "Thursday": "8am-5pm",
        "Friday": "8am-5pm",
        "Saturday": "Closed"
      }
    },
    {
      "id": 121,
      "name": "San Clemente",
      "slug": "san-clemente-dmv",
      "phone": "(800) 777-0133",
      "hours": "Monday-Friday: 8:00 AM - 5:00 PM",
      "address": "2727 Via Cascadita, San Clemente, CA 92672",
      "services": [
        "Driving Tests",
        "License Plates",
        "Permits",
        "Placards",
        "REAL ID",
        "Records Requests",
        "Replacement Documents",
        "Title Transfers",
        "Vehicle Registration"
      ],
      "hours_detailed": {
        "Sunday": "Closed",
        "Monday": "8am-5pm",
        "Tuesday": "8am-5pm",
        "Wednesday": "9am-5pm",
        "Thursday": "8am-5pm",
        "Friday": "8am-5pm",
        "Saturday": "Closed"
      }
    },
    {
      "id": 122,
      "name": "San Diego",
      "slug": "dmv-san-diego",
      "phone": "(800) 777-0133",
      "hours": "Monday-Friday: 8:00 AM - 5:00 PM",
      "address": "3960 Normal Street, San Diego, CA 92103",
      "services": [
        "Driving Tests",
        "License Plates",
        "Permits",
        "Placards",
        "REAL ID",
        "Records Requests",
        "Replacement Documents",
        "Title Transfers",
        "Vehicle Registration"
      ],
      "hours_detailed": {
        "Sunday": "Closed",
        "Monday": "8am-5pm",
        "Tuesday": "8am-5pm",
        "Wednesday": "9am-5pm",
        "Thursday": "8am-5pm",
        "Friday": "8am-5pm",
        "Saturday": "Closed"
      }
    },
    {
      "id": 123,
      "name": "San Diego Clairemont",
      "slug": "san-diego-clairemont-dmv",
      "phone": "(800) 777-0133",
      "hours": "Monday-Friday: 8:00 AM - 5:00 PM",
      "address": "4375 Derrick Drive, San Diego, CA 92117",
      "services": [
        "Driving Tests",
        "License Plates",
        "Permits",
        "Placards",
        "REAL ID",
        "Records Requests",
        "Replacement Documents",
        "Title Transfers",
        "Vehicle Registration"
      ],
      "hours_detailed": {
        "Sunday": "Closed",
        "Monday": "8am-5pm",
        "Tuesday": "8am-5pm",
        "Wednesday": "9am-5pm",
        "Thursday": "8am-5pm",
        "Friday": "8am-5pm",
        "Saturday": "Closed"
      }
    },
    {
      "id": 124,
      "name": "San Francisco",
      "slug": "dmv-san-francisco",
      "phone": "(800) 777-0133",
      "hours": "Monday-Friday: 8:00 AM - 5:00 PM",
      "address": "1377 Fell Street, San Francisco, CA 94117",
      "services": [
        "Driving Tests",
        "License Plates",
        "Permits",
        "Placards",
        "REAL ID",
        "Records Requests",
        "Replacement Documents",
        "Title Transfers",
        "Vehicle Registration"
      ],
      "hours_detailed": {
        "Sunday": "Closed",
        "Monday": "8am-5pm",
        "Tuesday": "8am-5pm",
        "Wednesday": "9am-5pm",
        "Thursday": "8am-5pm",
        "Friday": "8am-5pm",
        "Saturday": "Closed"
      }
    },
    {
      "id": 125,
      "name": "San Jose",
      "slug": "dmv-san-jose",
      "phone": "(800) 777-0133",
      "hours": "Monday-Friday: 8:00 AM - 5:00 PM",
      "address": "111 W Alma Avenue, San Jose, CA 95110",
      "services": [
        "Driving Tests",
        "License Plates",
        "Permits",
        "Placards",
        "REAL ID",
        "Records Requests",
        "Replacement Documents",
        "Title Transfers",
        "Vehicle Registration"
      ],
      "hours_detailed": {
        "Sunday": "Closed",
        "Monday": "8am-5pm",
        "Tuesday": "8am-5pm",
        "Wednesday": "9am-5pm",
        "Thursday": "8am-5pm",
        "Friday": "8am-5pm",
        "Saturday": "Closed"
      }
    },
    {
      "id": 126,
      "name": "San Jose Driver License Processing Center",
      "slug": "san-jose-driver-license-processing-center-dl",
      "phone": "(800) 777-0133",
      "hours": "Monday-Friday: 8:00 AM - 5:00 PM",
      "address": "",
      "services": [
        "Driver License",
        "Vehicle Registration",
        "REAL ID"
      ]
    },
    {
      "id": 127,
      "name": "San Luis Obispo",
      "slug": "dmv-san-luis-obispo",
      "phone": "(800) 777-0133",
      "hours": "Monday-Friday: 8:00 AM - 5:00 PM",
      "address": "3190 S Higuera Street, San Luis Obispo, CA 93401",
      "services": [
        "Commercial Driver License",
        "Driving Tests",
        "License Plates",
        "Permits",
        "Placards",
        "REAL ID",
        "Records Requests",
        "Replacement Documents",
        "Title Transfers",
        "Vehicle Registration"
      ],
      "hours_detailed": {
        "Sunday": "Closed",
        "Monday": "8am-5pm",
        "Tuesday": "8am-5pm",
        "Wednesday": "9am-5pm",
        "Thursday": "8am-5pm",
        "Friday": "8am-5pm",
        "Saturday": "Closed"
      }
    },
    {
      "id": 128,
      "name": "San Marcos Rancheros",
      "slug": "san-marcos-rancheros-dmv",
      "phone": "(800) 777-0133",
      "hours": "Monday-Friday: 8:00 AM - 5:00 PM",
      "address": "",
      "services": [
        "Driver License",
        "Vehicle Registration",
        "REAL ID"
      ]
    },
    {
      "id": 129,
      "name": "San Mateo",
      "slug": "san-mateo-dmv",
      "phone": "(800) 777-0133",
      "hours": "Monday-Friday: 8:00 AM - 5:00 PM",
      "address": "425 N Amphlett Boulevard, San Mateo, CA 94401",
      "services": [
        "Driving Tests",
        "License Plates",
        "Permits",
        "Placards",
        "REAL ID",
        "Records Requests",
        "Replacement Documents",
        "Title Transfers",
        "Vehicle Registration"
      ],
      "hours_detailed": {
        "Sunday": "Closed",
        "Monday": "8am-5pm",
        "Tuesday": "8am-5pm",
        "Wednesday": "9am-5pm",
        "Thursday": "8am-5pm",
        "Friday": "8am-5pm",
        "Saturday": "Closed"
      }
    },
    {
      "id": 130,
      "name": "San Pedro",
      "slug": "san-pedro-dmv",
      "phone": "(800) 777-0133",
      "hours": "Monday-Friday: 8:00 AM - 5:00 PM",
      "address": "1511 N Gaffey Street, San Pedro, CA 90731",
      "services": [
        "Commercial Driver License",
        "Driving Tests",
        "License Plates",
        "Permits",
        "Placards",
        "REAL ID",
        "Records Requests",
        "Replacement Documents",
        "Title Transfers",
        "Vehicle Registration"
      ],
      "hours_detailed": {
        "Sunday": "Closed",
        "Monday": "8am-5pm",
        "Tuesday": "8am-5pm",
        "Wednesday": "9am-5pm",
        "Thursday": "8am-5pm",
        "Friday": "8am-5pm",
        "Saturday": "Closed"
      }
    },
    {
      "id": 131,
      "name": "San Ysidro",
      "slug": "san-ysidro-dmv",
      "phone": "(800) 777-0133",
      "hours": "Monday-Friday: 8:00 AM - 5:00 PM",
      "address": "6111 Business Center Court, San Diego, CA 92154",
      "services": [
        "Driving Tests",
        "License Plates",
        "Permits",
        "Placards",
        "REAL ID",
        "Records Requests",
        "Replacement Documents",
        "Title Transfers",
        "Vehicle Registration"
      ],
      "hours_detailed": {
        "Sunday": "Closed",
        "Monday": "8am-5pm",
        "Tuesday": "8am-5pm",
        "Wednesday": "9am-5pm",
        "Thursday": "8am-5pm",
        "Friday": "8am-5pm",
        "Saturday": "Closed"
      }
    },
    {
      "id": 132,
      "name": "Santa Ana",
      "slug": "santa-ana-dmv",
      "phone": "(800) 777-0133",
      "hours": "Monday-Friday: 8:00 AM - 5:00 PM",
      "address": "1330 E First Street, Santa Ana, CA 92701",
      "services": [
        "Driving Tests",
        "License Plates",
        "Permits",
        "Placards",
        "REAL ID",
        "Records Requests",
        "Replacement Documents",
        "Title Transfers",
        "Vehicle Registration"
      ],
      "hours_detailed": {
        "Sunday": "Closed",
        "Monday": "8am-5pm",
        "Tuesday": "8am-5pm",
        "Wednesday": "9am-5pm",
        "Thursday": "8am-5pm",
        "Friday": "8am-5pm",
        "Saturday": "Closed"
      }
    },
    {
      "id": 133,
      "name": "Santa Barbara",
      "slug": "dmv-santa-barbara",
      "phone": "(800) 777-0133",
      "hours": "Monday-Friday: 8:00 AM - 5:00 PM",
      "address": "535 Castillo Street, Santa Barbara, CA 93101",
      "services": [
        "Driving Tests",
        "License Plates",
        "Permits",
        "Placards",
        "REAL ID",
        "Records Requests",
        "Replacement Documents",
        "Title Transfers",
        "Vehicle Registration"
      ],
      "hours_detailed": {
        "Sunday": "Closed",
        "Monday": "8am-5pm",
        "Tuesday": "8am-5pm",
        "Wednesday": "9am-5pm",
        "Thursday": "8am-5pm",
        "Friday": "8am-5pm",
        "Saturday": "Closed"
      }
    },
    {
      "id": 134,
      "name": "Santa Clara",
      "slug": "santa-clara-dmv",
      "phone": "(800) 777-0133",
      "hours": "Monday-Friday: 8:00 AM - 5:00 PM",
      "address": "3665 Flora Vista Ave, Santa Clara, CA 95051",
      "services": [
        "Driving Tests",
        "License Plates",
        "Permits",
        "Placards",
        "REAL ID",
        "Records Requests",
        "Replacement Documents",
        "Title Transfers",
        "Vehicle Registration"
      ],
      "hours_detailed": {
        "Sunday": "Closed",
        "Monday": "8am-5pm",
        "Tuesday": "8am-5pm",
        "Wednesday": "9am-5pm",
        "Thursday": "8am-5pm",
        "Friday": "8am-5pm",
        "Saturday": "Closed"
      }
    },
    {
      "id": 135,
      "name": "Santa Maria",
      "slug": "dmv-santa-maria",
      "phone": "(800) 777-0133",
      "hours": "Monday-Friday: 8:00 AM - 5:00 PM",
      "address": "2850 Santa Maria Way, Santa Maria, CA 93455",
      "services": [
        "Driving Tests",
        "License Plates",
        "Permits",
        "Placards",
        "REAL ID",
        "Records Requests",
        "Replacement Documents",
        "Title Transfers",
        "Vehicle Registration"
      ],
      "hours_detailed": {
        "Sunday": "Closed",
        "Monday": "8am-5pm",
        "Tuesday": "8am-5pm",
        "Wednesday": "9am-5pm",
        "Thursday": "8am-5pm",
        "Friday": "8am-5pm",
        "Saturday": "Closed"
      }
    },
    {
      "id": 136,
      "name": "Santa Monica",
      "slug": "santa-monica-dmv",
      "phone": "(800) 777-0133",
      "hours": "Monday-Friday: 8:00 AM - 5:00 PM",
      "address": "2235 Colorado Avenue, Santa Monica, CA 90404",
      "services": [
        "Driving Tests",
        "License Plates",
        "Permits",
        "Placards",
        "REAL ID",
        "Records Requests",
        "Replacement Documents",
        "Title Transfers",
        "Vehicle Registration"
      ],
      "hours_detailed": {
        "Sunday": "Closed",
        "Monday": "8am-5pm",
        "Tuesday": "8am-5pm",
        "Wednesday": "9am-5pm",
        "Thursday": "8am-5pm",
        "Friday": "8am-5pm",
        "Saturday": "Closed"
      }
    },
    {
      "id": 137,
      "name": "Santa Paula",
      "slug": "santa-paula-dmv",
      "phone": "(800) 777-0133",
      "hours": "Monday-Friday: 8:00 AM - 5:00 PM",
      "address": "250 W Harvard Boulevard A, Santa Paula, CA 93060",
      "services": [
        "Driving Tests",
        "License Plates",
        "Permits",
        "Placards",
        "REAL ID",
        "Records Requests",
        "Replacement Documents",
        "Title Transfers",
        "Vehicle Registration"
      ],
      "hours_detailed": {
        "Sunday": "Closed",
        "Monday": "8am-5pm",
        "Tuesday": "8am-5pm",
        "Wednesday": "9am-5pm",
        "Thursday": "8am-5pm",
        "Friday": "8am-5pm",
        "Saturday": "Closed"
      }
    },
    {
      "id": 138,
      "name": "Santa Rosa",
      "slug": "santa-rosa-dmv",
      "phone": "(800) 777-0133",
      "hours": "Monday-Friday: 8:00 AM - 5:00 PM",
      "address": "2570 Corby Ave, Santa Rosa, CA 95407",
      "services": [
        "Driving Tests",
        "License Plates",
        "Permits",
        "Placards",
        "REAL ID",
        "Records Requests",
        "Replacement Documents",
        "Title Transfers",
        "Vehicle Registration"
      ],
      "hours_detailed": {
        "Sunday": "Closed",
        "Monday": "8am-5pm",
        "Tuesday": "8am-5pm",
        "Wednesday": "9am-5pm",
        "Thursday": "8am-5pm",
        "Friday": "8am-5pm",
        "Saturday": "Closed"
      }
    },
    {
      "id": 139,
      "name": "Santa Teresa",
      "slug": "santa-teresa-dmv",
      "phone": "(800) 777-0133",
      "hours": "Monday-Friday: 8:00 AM - 5:00 PM",
      "address": "180 Martinvale Lane, San Jose, CA 95119",
      "services": [
        "Driving Tests",
        "License Plates",
        "Permits",
        "Placards",
        "REAL ID",
        "Records Requests",
        "Replacement Documents",
        "Title Transfers",
        "Vehicle Registration"
      ],
      "hours_detailed": {
        "Sunday": "Closed",
        "Monday": "8am-5pm",
        "Tuesday": "8am-5pm",
        "Wednesday": "9am-5pm",
        "Thursday": "8am-5pm",
        "Friday": "8am-5pm",
        "Saturday": "Closed"
      }
    },
    {
      "id": 140,
      "name": "Seaside",
      "slug": "dmv-seaside",
      "phone": "(800) 777-0133",
      "hours": "Monday-Friday: 8:00 AM - 5:00 PM",
      "address": "1180 Canyon Del Rey Blvd, Seaside, CA 93955",
      "services": [
        "Commercial Driver License",
        "Driving Tests",
        "License Plates",
        "Permits",
        "Placards",
        "REAL ID",
        "Records Requests",
        "Replacement Documents",
        "Title Transfers",
        "Vehicle Registration"
      ],
      "hours_detailed": {
        "Sunday": "Closed",
        "Monday": "8am-5pm",
        "Tuesday": "8am-5pm",
        "Wednesday": "9am-5pm",
        "Thursday": "8am-5pm",
        "Friday": "8am-5pm",
        "Saturday": "Closed"
      }
    },
    {
      "id": 141,
      "name": "Shafter",
      "slug": "shafter-dmv",
      "phone": "(800) 777-0133",
      "hours": "Monday-Friday: 8:00 AM - 5:00 PM",
      "address": "548 Walker Street, Shafter, CA 93263",
      "services": [
        "Driving Tests",
        "License Plates",
        "Permits",
        "Placards",
        "REAL ID",
        "Records Requests",
        "Replacement Documents",
        "Title Transfers",
        "Vehicle Registration"
      ],
      "hours_detailed": {
        "Sunday": "Closed",
        "Monday": "Closed",
        "Tuesday": "8am-5pm",
        "Wednesday": "Closed",
        "Thursday": "8am-5pm",
        "Friday": "Closed",
        "Saturday": "Closed"
      }
    },
    {
      "id": 142,
      "name": "Simi Valley",
      "slug": "simi-valley-dmv",
      "phone": "(800) 777-0133",
      "hours": "Monday-Friday: 8:00 AM - 5:00 PM",
      "address": "3855 D - Alamo Street, Simi Valley, CA 93063",
      "services": [
        "Driving Tests",
        "License Plates",
        "Permits",
        "Placards",
        "REAL ID",
        "Records Requests",
        "Replacement Documents",
        "Title Transfers",
        "Vehicle Registration"
      ],
      "hours_detailed": {
        "Sunday": "Closed",
        "Monday": "8am-5pm",
        "Tuesday": "8am-5pm",
        "Wednesday": "9am-5pm",
        "Thursday": "8am-5pm",
        "Friday": "8am-5pm",
        "Saturday": "Closed"
      }
    },
    {
      "id": 143,
      "name": "Sonora",
      "slug": "dmv-sonora-ca",
      "phone": "(800) 777-0133",
      "hours": "Monday-Friday: 8:00 AM - 5:00 PM",
      "address": "885 Morning Star Drive, Sonora, CA 95370",
      "services": [
        "Driving Tests",
        "License Plates",
        "Permits",
        "Placards",
        "REAL ID",
        "Records Requests",
        "Replacement Documents",
        "Title Transfers",
        "Vehicle Registration"
      ],
      "hours_detailed": {
        "Sunday": "Closed",
        "Monday": "8am-5pm",
        "Tuesday": "8am-5pm",
        "Wednesday": "9am-5pm",
        "Thursday": "8am-5pm",
        "Friday": "8am-5pm",
        "Saturday": "Closed"
      }
    },
    {
      "id": 144,
      "name": "South Lake Tahoe",
      "slug": "dmv-south-lake-tahoe",
      "phone": "(800) 777-0133",
      "hours": "Monday-Friday: 8:00 AM - 5:00 PM",
      "address": "3344 B Lake Tahoe Boulevard, South Lake Tahoe, CA 96150",
      "services": [
        "Driving Tests",
        "License Plates",
        "Permits",
        "Placards",
        "REAL ID",
        "Records Requests",
        "Replacement Documents",
        "Title Transfers",
        "Vehicle Registration"
      ],
      "hours_detailed": {
        "Sunday": "Closed",
        "Monday": "8am-5pm",
        "Tuesday": "8am-5pm",
        "Wednesday": "9am-5pm",
        "Thursday": "8am-5pm",
        "Friday": "8am-5pm",
        "Saturday": "Closed"
      }
    },
    {
      "id": 145,
      "name": "Stanton Driver License Processing Center",
      "slug": "stanton-driver-license-processing-center-dl",
      "phone": "(800) 777-0133",
      "hours": "Monday-Friday: 8:00 AM - 5:00 PM",
      "address": "",
      "services": [
        "Driver License",
        "Vehicle Registration",
        "REAL ID"
      ],
      "status": "CLOSED",
      "closed_date": "2023-03-01",
      "closure_reason": "Driver License Processing Center permanently closed"
    },
    {
      "id": 146,
      "name": "Stockton",
      "slug": "stockton-dmv",
      "phone": "(800) 777-0133",
      "hours": "Monday-Friday: 8:00 AM - 5:00 PM",
      "address": "55 South Lincoln Street, Stockton, CA 95203",
      "services": [
        "Driving Tests",
        "License Plates",
        "Permits",
        "Placards",
        "REAL ID",
        "Records Requests",
        "Replacement Documents",
        "Title Transfers",
        "Vehicle Registration"
      ],
      "hours_detailed": {
        "Sunday": "Closed",
        "Monday": "8am-5pm",
        "Tuesday": "8am-5pm",
        "Wednesday": "9am-5pm",
        "Thursday": "8am-5pm",
        "Friday": "8am-5pm",
        "Saturday": "Closed"
      }
    },
    {
      "id": 147,
      "name": "Susanville",
      "slug": "dmv-susanville-ca",
      "phone": "(800) 777-0133",
      "hours": "Monday-Friday: 8:00 AM - 5:00 PM",
      "address": "2615 Main Street, Susanville, CA 96130",
      "services": [
        "Driving Tests",
        "License Plates",
        "Permits",
        "Placards",
        "REAL ID",
        "Records Requests",
        "Replacement Documents",
        "Title Transfers",
        "Vehicle Registration"
      ],
      "hours_detailed": {
        "Sunday": "Closed",
        "Monday": "8am-5pm",
        "Tuesday": "Closed",
        "Wednesday": "9am-5pm",
        "Thursday": "Closed",
        "Friday": "8am-5pm",
        "Saturday": "Closed"
      }
    },
    {
      "id": 148,
      "name": "Taft",
      "slug": "taft-dmv",
      "phone": "(800) 777-0133",
      "hours": "Monday-Friday: 8:00 AM - 5:00 PM",
      "address": "165 Center Street, Taft, CA 93268",
      "services": [
        "Driving Tests",
        "License Plates",
        "Permits",
        "Placards",
        "REAL ID",
        "Records Requests",
        "Replacement Documents",
        "Title Transfers",
        "Vehicle Registration"
      ],
      "hours_detailed": {
        "Sunday": "Closed",
        "Monday": "Closed",
        "Tuesday": "8am-5pm",
        "Wednesday": "Closed",
        "Thursday": "8am-5pm",
        "Friday": "Closed",
        "Saturday": "Closed"
      }
    },
    {
      "id": 149,
      "name": "Temecula",
      "slug": "dmv-temecula",
      "phone": "(800) 777-0133",
      "hours": "Monday-Friday: 8:00 AM - 5:00 PM",
      "address": "27851 Diaz Road, Temecula, CA 92590",
      "services": [
        "Driving Tests",
        "License Plates",
        "Permits",
        "Placards",
        "REAL ID",
        "Records Requests",
        "Replacement Documents",
        "Title Transfers",
        "Vehicle Registration"
      ],
      "hours_detailed": {
        "Sunday": "Closed",
        "Monday": "8am-5pm",
        "Tuesday": "8am-5pm",
        "Wednesday": "9am-5pm",
        "Thursday": "8am-5pm",
        "Friday": "8am-5pm",
        "Saturday": "Closed"
      }
    },
    {
      "id": 150,
      "name": "Thousand Oaks",
      "slug": "thousand-oaks-dmv",
      "phone": "(800) 777-0133",
      "hours": "Monday-Friday: 8:00 AM - 5:00 PM",
      "address": "1810 E Avenida De Los Arboles, Thousand Oaks, CA 91362",
      "services": [
        "Driving Tests",
        "License Plates",
        "Permits",
        "Placards",
        "REAL ID",
        "Records Requests",
        "Replacement Documents",
        "Title Transfers",
        "Vehicle Registration"
      ],
      "hours_detailed": {
        "Sunday": "Closed",
        "Monday": "8am-5pm",
        "Tuesday": "8am-5pm",
        "Wednesday": "9am-5pm",
        "Thursday": "8am-5pm",
        "Friday": "8am-5pm",
        "Saturday": "Closed"
      }
    },
    {
      "id": 151,
      "name": "Torrance",
      "slug": "torrance-dmv",
      "phone": "(800) 777-0133",
      "hours": "Monday-Friday: 8:00 AM - 5:00 PM",
      "address": "1785 W 220th Street, Torrance, CA 90501",
      "services": [
        "Commercial Driver License",
        "Driving Tests",
        "License Plates",
        "Permits",
        "Placards",
        "REAL ID",
        "Records Requests",
        "Replacement Documents",
        "Title Transfers",
        "Vehicle Registration"
      ],
      "hours_detailed": {
        "Sunday": "Closed",
        "Monday": "8am-5pm",
        "Tuesday": "8am-5pm",
        "Wednesday": "9am-5pm",
        "Thursday": "8am-5pm",
        "Friday": "8am-5pm",
        "Saturday": "Closed"
      }
    },
    {
      "id": 152,
      "name": "Tracy",
      "slug": "tracy-dmv",
      "phone": "(800) 777-0133",
      "hours": "Monday-Friday: 8:00 AM - 5:00 PM",
      "address": "2785 Auto Plaza Drive, Tracy, CA 95304",
      "services": [
        "Driving Tests",
        "License Plates",
        "Permits",
        "Placards",
        "REAL ID",
        "Records Requests",
        "Replacement Documents",
        "Title Transfers",
        "Vehicle Registration"
      ],
      "hours_detailed": {
        "Sunday": "Closed",
        "Monday": "8am-5pm",
        "Tuesday": "8am-5pm",
        "Wednesday": "9am-5pm",
        "Thursday": "8am-5pm",
        "Friday": "8am-5pm",
        "Saturday": "Closed"
      }
    },
    {
      "id": 153,
      "name": "Truckee",
      "slug": "truckee-dmv",
      "phone": "(800) 777-0133",
      "hours": "Monday-Friday: 8:00 AM - 5:00 PM",
      "address": "11357 Donner Pass Road Suite I, Truckee, CA 96162",
      "services": [
        "Driving Tests",
        "License Plates",
        "Permits",
        "Placards",
        "REAL ID",
        "Records Requests",
        "Replacement Documents",
        "Title Transfers",
        "Vehicle Registration"
      ],
      "hours_detailed": {
        "Sunday": "Closed",
        "Monday": "8am-5pm",
        "Tuesday": "8am-5pm",
        "Wednesday": "9am-5pm",
        "Thursday": "8am-5pm",
        "Friday": "8am-5pm",
        "Saturday": "Closed"
      }
    },
    {
      "id": 154,
      "name": "Tulare",
      "slug": "tulare-dmv",
      "phone": "(800) 777-0133",
      "hours": "Monday-Friday: 8:00 AM - 5:00 PM",
      "address": "274 E Cross Avenue, Tulare, CA 93274",
      "services": [
        "Driving Tests",
        "License Plates",
        "Permits",
        "Placards",
        "REAL ID",
        "Records Requests",
        "Replacement Documents",
        "Title Transfers",
        "Vehicle Registration"
      ],
      "hours_detailed": {
        "Sunday": "Closed",
        "Monday": "8am-5pm",
        "Tuesday": "8am-5pm",
        "Wednesday": "9am-5pm",
        "Thursday": "8am-5pm",
        "Friday": "8am-5pm",
        "Saturday": "Closed"
      }
    },
    {
      "id": 155,
      "name": "Tulelake",
      "slug": "tulelake-dmv",
      "phone": "(800) 777-0133",
      "hours": "Monday-Friday: 8:00 AM - 5:00 PM",
      "address": "",
      "services": [
        "Driver License",
        "Vehicle Registration",
        "REAL ID"
      ]
    },
    {
      "id": 156,
      "name": "Turlock",
      "slug": "turlock-dmv",
      "phone": "(800) 777-0133",
      "hours": "Monday-Friday: 8:00 AM - 5:00 PM",
      "address": "825 E Monte Vista Avenue, Turlock, CA 95382",
      "services": [
        "Driving Tests",
        "License Plates",
        "Permits",
        "Placards",
        "REAL ID",
        "Records Requests",
        "Replacement Documents",
        "Title Transfers",
        "Vehicle Registration"
      ],
      "hours_detailed": {
        "Sunday": "Closed",
        "Monday": "8am-5pm",
        "Tuesday": "8am-5pm",
        "Wednesday": "9am-5pm",
        "Thursday": "8am-5pm",
        "Friday": "8am-5pm",
        "Saturday": "Closed"
      }
    },
    {
      "id": 157,
      "name": "Twentynine Palms",
      "slug": "twentynine-palms-dmv",
      "phone": "(800) 777-0133",
      "hours": "Monday-Friday: 8:00 AM - 5:00 PM",
      "address": "3668 Adobe Road G-J, Twentynine Palms, CA 92277",
      "services": [
        "Driving Tests",
        "License Plates",
        "Permits",
        "Placards",
        "REAL ID",
        "Records Requests",
        "Replacement Documents",
        "Title Transfers",
        "Vehicle Registration"
      ],
      "hours_detailed": {
        "Sunday": "Closed",
        "Monday": "Closed",
        "Tuesday": "8am-5pm",
        "Wednesday": "Closed",
        "Thursday": "8am-5pm",
        "Friday": "Closed",
        "Saturday": "Closed"
      }
    },
    {
      "id": 158,
      "name": "Ukiah",
      "slug": "ukiah-dmv",
      "phone": "(800) 777-0133",
      "hours": "Monday-Friday: 8:00 AM - 5:00 PM",
      "address": "542 S Orchard Avenue, Ukiah, CA 95482",
      "services": [
        "Driving Tests",
        "License Plates",
        "Permits",
        "Placards",
        "REAL ID",
        "Records Requests",
        "Replacement Documents",
        "Title Transfers",
        "Vehicle Registration"
      ],
      "hours_detailed": {
        "Sunday": "Closed",
        "Monday": "8am-5pm",
        "Tuesday": "8am-5pm",
        "Wednesday": "9am-5pm",
        "Thursday": "8am-5pm",
        "Friday": "8am-5pm",
        "Saturday": "Closed"
      }
    },
    {
      "id": 159,
      "name": "Vacaville",
      "slug": "vacaville-dmv",
      "phone": "(800) 777-0133",
      "hours": "Monday-Friday: 8:00 AM - 5:00 PM",
      "address": "621 Orange Drive, Vacaville, CA 95687",
      "services": [
        "Driving Tests",
        "License Plates",
        "Permits",
        "Placards",
        "REAL ID",
        "Records Requests",
        "Replacement Documents",
        "Title Transfers",
        "Vehicle Registration"
      ],
      "hours_detailed": {
        "Sunday": "Closed",
        "Monday": "8am-5pm",
        "Tuesday": "8am-5pm",
        "Wednesday": "9am-5pm",
        "Thursday": "8am-5pm",
        "Friday": "8am-5pm",
        "Saturday": "Closed"
      }
    },
    {
      "id": 160,
      "name": "Vallejo",
      "slug": "vallejo-dmv",
      "phone": "(800) 777-0133",
      "hours": "Monday-Friday: 8:00 AM - 5:00 PM",
      "address": "200 Couch Street, Vallejo, CA 94590",
      "services": [
        "Driving Tests",
        "License Plates",
        "Permits",
        "Placards",
        "REAL ID",
        "Records Requests",
        "Replacement Documents",
        "Title Transfers",
        "Vehicle Registration"
      ],
      "hours_detailed": {
        "Sunday": "Closed",
        "Monday": "8am-5pm",
        "Tuesday": "8am-5pm",
        "Wednesday": "9am-5pm",
        "Thursday": "8am-5pm",
        "Friday": "8am-5pm",
        "Saturday": "Closed"
      }
    },
    {
      "id": 161,
      "name": "Van Nuys",
      "slug": "dmv-van-nuys",
      "phone": "(800) 777-0133",
      "hours": "Monday-Friday: 8:00 AM - 5:00 PM",
      "address": "14920 Vanowen Street, Van Nuys, CA 91405",
      "services": [
        "Driving Tests",
        "License Plates",
        "Permits",
        "Placards",
        "REAL ID",
        "Records Requests",
        "Replacement Documents",
        "Title Transfers",
        "Vehicle Registration"
      ],
      "hours_detailed": {
        "Sunday": "Closed",
        "Monday": "8am-5pm",
        "Tuesday": "8am-5pm",
        "Wednesday": "9am-5pm",
        "Thursday": "8am-5pm",
        "Friday": "8am-5pm",
        "Saturday": "Closed"
      }
    },
    {
      "id": 162,
      "name": "Ventura",
      "slug": "dmv-ventura",
      "phone": "(800) 777-0133",
      "hours": "Monday-Friday: 8:00 AM - 5:00 PM",
      "address": "4260 Market Street, Ventura, CA 93003",
      "services": [
        "Driving Tests",
        "License Plates",
        "Permits",
        "Placards",
        "REAL ID",
        "Records Requests",
        "Replacement Documents",
        "Title Transfers",
        "Vehicle Registration"
      ],
      "hours_detailed": {
        "Sunday": "Closed",
        "Monday": "8am-5pm",
        "Tuesday": "8am-5pm",
        "Wednesday": "9am-5pm",
        "Thursday": "8am-5pm",
        "Friday": "8am-5pm",
        "Saturday": "Closed"
      }
    },
    {
      "id": 163,
      "name": "Victorville",
      "slug": "victorville-dmv",
      "phone": "(800) 777-0133",
      "hours": "Monday-Friday: 8:00 AM - 5:00 PM",
      "address": "14855 Corta Drive, Victorville, CA 92395",
      "services": [
        "Driving Tests",
        "License Plates",
        "Permits",
        "Placards",
        "REAL ID",
        "Records Requests",
        "Replacement Documents",
        "Title Transfers",
        "Vehicle Registration"
      ],
      "hours_detailed": {
        "Sunday": "Closed",
        "Monday": "8am-5pm",
        "Tuesday": "8am-5pm",
        "Wednesday": "9am-5pm",
        "Thursday": "8am-5pm",
        "Friday": "8am-5pm",
        "Saturday": "Closed"
      }
    },
    {
      "id": 164,
      "name": "Visalia",
      "slug": "dmv-visalia",
      "phone": "(800) 777-0133",
      "hours": "Monday-Friday: 8:00 AM - 5:00 PM",
      "address": "1711 East Main Street, Visalia, CA 93292",
      "services": [
        "Driving Tests",
        "License Plates",
        "Permits",
        "Placards",
        "REAL ID",
        "Records Requests",
        "Replacement Documents",
        "Title Transfers",
        "Vehicle Registration"
      ],
      "hours_detailed": {
        "Sunday": "Closed",
        "Monday": "8am-5pm",
        "Tuesday": "8am-5pm",
        "Wednesday": "9am-5pm",
        "Thursday": "8am-5pm",
        "Friday": "8am-5pm",
        "Saturday": "Closed"
      }
    },
    {
      "id": 165,
      "name": "Walnut Creek",
      "slug": "dmv-walnut-creek",
      "phone": "(800) 777-0133",
      "hours": "Monday-Friday: 8:00 AM - 5:00 PM",
      "address": "",
      "services": [
        "Driver License",
        "Vehicle Registration",
        "REAL ID"
      ]
    },
    {
      "id": 166,
      "name": "Watsonville",
      "slug": "dmv-watsonville",
      "phone": "(800) 777-0133",
      "hours": "Monday-Friday: 8:00 AM - 5:00 PM",
      "address": "90 Alta Vista Avenue, Watsonville, CA 95076",
      "services": [
        "Driving Tests",
        "License Plates",
        "Permits",
        "Placards",
        "REAL ID",
        "Records Requests",
        "Replacement Documents",
        "Title Transfers",
        "Vehicle Registration"
      ],
      "hours_detailed": {
        "Sunday": "Closed",
        "Monday": "8am-5pm",
        "Tuesday": "8am-5pm",
        "Wednesday": "9am-5pm",
        "Thursday": "8am-5pm",
        "Friday": "8am-5pm",
        "Saturday": "Closed"
      }
    },
    {
      "id": 167,
      "name": "Weaverville",
      "slug": "weaverville-dmv",
      "phone": "(800) 777-0133",
      "hours": "Monday-Friday: 8:00 AM - 5:00 PM",
      "address": "1511 Main Street, Weaverville, CA 96093",
      "services": [
        "Driving Tests",
        "License Plates",
        "Permits",
        "Placards",
        "REAL ID",
        "Records Requests",
        "Replacement Documents",
        "Title Transfers",
        "Vehicle Registration"
      ],
      "hours_detailed": {
        "Sunday": "Closed",
        "Monday": "Closed",
        "Tuesday": "8am-5pm",
        "Wednesday": "Closed",
        "Thursday": "8am-5pm",
        "Friday": "Closed",
        "Saturday": "Closed"
      }
    },
    {
      "id": 168,
      "name": "West Covina",
      "slug": "west-covina-dmv",
      "phone": "(800) 777-0133",
      "hours": "Monday-Friday: 8:00 AM - 5:00 PM",
      "address": "800 So Glendora Avenue, West Covina, CA 91790",
      "services": [
        "Driving Tests",
        "License Plates",
        "Permits",
        "Placards",
        "REAL ID",
        "Records Requests",
        "Replacement Documents",
        "Title Transfers",
        "Vehicle Registration"
      ],
      "hours_detailed": {
        "Sunday": "Closed",
        "Monday": "8am-5pm",
        "Tuesday": "8am-5pm",
        "Wednesday": "9am-5pm",
        "Thursday": "8am-5pm",
        "Friday": "8am-5pm",
        "Saturday": "Closed"
      }
    },
    {
      "id": 169,
      "name": "West Hollywood",
      "slug": "west-hollywood-dmv",
      "phone": "(800) 777-0133",
      "hours": "Monday-Friday: 8:00 AM - 5:00 PM",
      "address": "936 N Formosa Ave, West Hollywood, CA 90046",
      "services": [
        "Driving Tests",
        "License Plates",
        "Permits",
        "Placards",
        "REAL ID",
        "Records Requests",
        "Replacement Documents",
        "Title Transfers",
        "Vehicle Registration"
      ],
      "hours_detailed": {
        "Sunday": "Closed",
        "Monday": "8am-5pm",
        "Tuesday": "8am-5pm",
        "Wednesday": "9am-5pm",
        "Thursday": "8am-5pm",
        "Friday": "8am-5pm",
        "Saturday": "Closed"
      }
    },
    {
      "id": 170,
      "name": "West Sacramento Commercial Drive Test Center",
      "slug": "west-sacramento-commercial-drive-test-center",
      "phone": "(800) 777-0133",
      "hours": "Monday-Friday: 8:00 AM - 5:00 PM",
      "address": "2528 Evergreen Avenue, West Sacramento, CA 95691",
      "services": [
        "Commercial Driver License",
        "Driving Tests",
        "License Plates",
        "Placards",
        "REAL ID",
        "Records Requests",
        "Replacement Documents",
        "Vehicle Registration"
      ],
      "hours_detailed": {
        "Sunday": "Closed",
        "Monday": "7am-4pm",
        "Tuesday": "7am-4pm",
        "Wednesday": "8am-4pm",
        "Thursday": "7am-4pm",
        "Friday": "7am-4pm",
        "Saturday": "Closed"
      }
    },
    {
      "id": 171,
      "name": "Westminster",
      "slug": "westminster-dmv",
      "phone": "(800) 777-0133",
      "hours": "Monday-Friday: 8:00 AM - 5:00 PM",
      "address": "13700 Hoover Street, Westminster, CA 92683",
      "services": [
        "Driving Tests",
        "License Plates",
        "Permits",
        "Placards",
        "REAL ID",
        "Records Requests",
        "Title Transfers",
        "Vehicle Registration"
      ],
      "hours_detailed": {
        "Sunday": "Closed",
        "Monday": "8am-5pm",
        "Tuesday": "8am-5pm",
        "Wednesday": "9am-5pm",
        "Thursday": "8am-5pm",
        "Friday": "8am-5pm",
        "Saturday": "Closed"
      }
    },
    {
      "id": 172,
      "name": "Whittier",
      "slug": "whittier-dmv",
      "phone": "(800) 777-0133",
      "hours": "Monday-Friday: 8:00 AM - 5:00 PM",
      "address": "9338 S Painter Avenue, Whittier, CA 90605",
      "services": [
        "Driving Tests",
        "License Plates",
        "Permits",
        "Placards",
        "REAL ID",
        "Records Requests",
        "Replacement Documents",
        "Title Transfers",
        "Vehicle Registration"
      ],
      "hours_detailed": {
        "Sunday": "Closed",
        "Monday": "8am-5pm",
        "Tuesday": "8am-5pm",
        "Wednesday": "9am-5pm",
        "Thursday": "8am-5pm",
        "Friday": "8am-5pm",
        "Saturday": "Closed"
      }
    },
    {
      "id": 173,
      "name": "Willows",
      "slug": "willows-dmv",
      "phone": "(800) 777-0133",
      "hours": "Monday-Friday: 8:00 AM - 5:00 PM",
      "address": "815 N Humboldt Avenue, Willows, CA 95988",
      "services": [
        "Driving Tests",
        "License Plates",
        "Permits",
        "Placards",
        "REAL ID",
        "Records Requests",
        "Replacement Documents",
        "Title Transfers",
        "Vehicle Registration"
      ],
      "hours_detailed": {
        "Sunday": "Closed",
        "Monday": "Closed",
        "Tuesday": "8am-5pm",
        "Wednesday": "Closed",
        "Thursday": "8am-5pm",
        "Friday": "Closed",
        "Saturday": "Closed"
      }
    },
    {
      "id": 174,
      "name": "Winnetka",
      "slug": "winnetka-dmv",
      "phone": "(800) 777-0133",
      "hours": "Monday-Friday: 8:00 AM - 5:00 PM",
      "address": "20725 Sherman Way, Winnetka, CA 91306",
      "services": [
        "Driving Tests",
        "License Plates",
        "Permits",
        "Placards",
        "REAL ID",
        "Records Requests",
        "Replacement Documents",
        "Title Transfers",
        "Vehicle Registration"
      ],
      "hours_detailed": {
        "Sunday": "Closed",
        "Monday": "8am-5pm",
        "Tuesday": "8am-5pm",
        "Wednesday": "9am-5pm",
        "Thursday": "8am-5pm",
        "Friday": "8am-5pm",
        "Saturday": "Closed"
      }
    },
    {
      "id": 175,
      "name": "Woodland",
      "slug": "woodland-dmv",
      "phone": "(800) 777-0133",
      "hours": "Monday-Friday: 8:00 AM - 5:00 PM",
      "address": "1224 E. Gibson Road, Woodland, CA 95776",
      "services": [
        "Commercial Driver License",
        "Driving Tests",
        "License Plates",
        "Permits",
        "Placards",
        "REAL ID",
        "Records Requests",
        "Replacement Documents",
        "Title Transfers",
        "Vehicle Registration"
      ],
      "hours_detailed": {
        "Sunday": "Closed",
        "Monday": "8am-5pm",
        "Tuesday": "8am-5pm",
        "Wednesday": "9am-5pm",
        "Thursday": "8am-5pm",
        "Friday": "8am-5pm",
        "Saturday": "Closed"
      }
    },
    {
      "id": 176,
      "name": "Yreka",
      "slug": "yreka-dmv",
      "phone": "(800) 777-0133",
      "hours": "Monday-Friday: 8:00 AM - 5:00 PM",
      "address": "1848 Fort Jones Rd, Yreka, CA 96097",
      "services": [
        "Driving Tests",
        "License Plates",
        "Permits",
        "Placards",
        "REAL ID",
        "Records Requests",
        "Replacement Documents",
        "Title Transfers",
        "Vehicle Registration"
      ],
      "hours_detailed": {
        "Sunday": "Closed",
        "Monday": "8am-5pm",
        "Tuesday": "Closed",
        "Wednesday": "9am-5pm",
        "Thursday": "Closed",
        "Friday": "8am-5pm",
        "Saturday": "Closed"
      }
    },
    {
      "id": 177,
      "name": "Yuba City",
      "slug": "yuba-city-dmv",
      "phone": "(800) 777-0133",
      "hours": "Monday-Friday: 8:00 AM - 5:00 PM",
      "address": "1570 Poole Boulevard, Yuba City, CA 95993",
      "services": [
        "Commercial Driver License",
        "Driving Tests",
        "License Plates",
        "Permits",
        "Placards",
        "REAL ID",
        "Records Requests",
        "Replacement Documents",
        "Title Transfers",
        "Vehicle Registration"
      ],
      "hours_detailed": {
        "Sunday": "Closed",
        "Monday": "8am-5pm",
        "Tuesday": "8am-5pm",
        "Wednesday": "9am-5pm",
        "Thursday": "8am-5pm",
        "Friday": "8am-5pm",
        "Saturday": "Closed"
      }
    }
  ]
}